row_id,source_dataset,npdes_id,registry_id,facility_name,city,state,county,permit_status,permit_type,facility_type,total_design_flow,actual_average_flow,current_snc_status,current_violation,inspections,pct_low_income_3mi,pct_people_of_color,population_density,tribal_spatial_flag,derived_tribes,latitude,longitude,has_tribal_context,has_current_violation
1,EPA ECHO CWA/NPDES facility locations,AKG370A54,110063602409,KUZMIN GEORGE CREEK MINE SITE,CHICKEN,AK,Unknown county,Terminated,General Permit Covered Facility,NON-POTW,NA,NA,NA,NA,0,100,100,0.04,NA,NA,64.12344000003598,-141.53957000000997,FALSE,FALSE
2,EPA ECHO CWA/NPDES facility locations,AKG370A97,110064414307,FRENCH MT. MUD CREEK MINE SITE,KOTZEBUE,AK,Unknown county,Terminated,General Permit Covered Facility,NON-POTW,NA,NA,NA,NA,0,66.66999999999999,100,0.16,N,"Native Village of Deering - 23 mile(s), Native Village of Buckland - 25 mile(s)",65.94105600016351,-161.97805599996096,TRUE,FALSE
3,EPA ECHO CWA/NPDES facility locations,AKR05CA38,110064603362,BAKER HUGHES OILFIELD OPERATIONS INC - BAKER OIL TOOKS KENAI,NIKISKI,AK,Unknown county,Terminated,General Permit Covered Facility,NON-POTW,NA,NA,NA,NA,0,39.93,25.74,51.78,N,"Salamatof Tribe - 11 mile(s), Kenaitze Indian Tribe - 13 mile(s), Native Village of Tyonek - 24 mile(s)",60.732499999926105,-151.30111100021102,TRUE,FALSE
4,EPA ECHO CWA/NPDES facility locations,AKR06GB94,110025226217,"DELTA WESTERN, LLC HAINES I BULK FACILITY",HAINES,AK,Haines,Expired,General Permit Covered Facility,NON-POTW,NA,NA,NA,NA,1,23.01,24.650000000000002,67.92,N,"Chilkoot Indian Association (Haines) - 1 mile(s), Skagway Village - 17 mile(s), Chilkat Indian Village (Klukwan) - 19 mile(s)",59.23572700012541,-135.46385599987994,TRUE,FALSE
5,EPA ECHO CWA/NPDES facility locations,AK0025666,110010112341,"PORT LIONS, CITY OF",PORT LIONS,AK,Kodiak Island,Terminated,NPDES Individual Permit,POTW,NA,NA,NA,NA,0,33.33,66.66999999999999,0.27,N,"Native Village of Port Lions - 1 mile(s), Native Village of Afognak - 12 mile(s), Native Village of Ouzinkie - 15 mile(s), Tangirnaq Native Village - 16 mile(s), Sun'aq Tribe of Kodiak - 19 mile(s)",57.866132999929015,-152.88694999967103,TRUE,FALSE
6,EPA ECHO CWA/NPDES facility locations,AKG130009,110070249504,SSRAA WHITMAN LAKE AQUACULTURE FACILITY,KETCHIKAN,AK,Ketchikan Gateway,Admin Continued,General Permit Covered Facility,NON-POTW,NA,NA,NA,NA,1,11.09,29,109.41000000000001,N,"Organized Village of Saxman - 3 mile(s), Metlakatla Indian Community, Annette Island Reserve - 3 mile(s), Ketchikan Indian Community - 5 mile(s)",55.3279269997907,-131.529597000139,TRUE,FALSE
7,EPA ECHO CWA/NPDES facility locations,AKG370B27,110064415734,KOPPENBERG DOME CREEK MINE SITE,FAIRBANKS,AK,Unknown county,Terminated,General Permit Covered Facility,NON-POTW,NA,NA,NA,NA,0,25.71,44.78,1093.1899999999998,NA,NA,64.84702000009351,-147.75849000015302,FALSE,FALSE
8,EPA ECHO CWA/NPDES facility locations,AKG375287,110012758738,JACK R JONES / STEESE HIGHWAY LIST,UNKNOWN,AK,Fairbanks North Star,Terminated,General Permit Covered Facility,NON-POTW,NA,NA,NA,NA,0,31.99,18.75,19.330000000000002,N,"Knik Tribe - 10 mile(s), Eklutna Native Village - 21 mile(s)",61.554799999873495,-149.939300000001,TRUE,FALSE
9,EPA ECHO CWA/NPDES facility locations,AKR10B754,110020059844,DAVIS CONSTRUCTORS AND ENGINEERS INC - CENTERPOINT SUB PHASE II,ANCHORAGE,AK,Anchorage Municipality,Terminated,General Permit Covered Facility,NON-POTW,NA,NA,NA,NA,0,24.12,47.949999999999996,3709.3500000000004,N,Knik Tribe - 20 mile(s),61.188070000005105,-149.890610000061,TRUE,FALSE
10,EPA ECHO CWA/NPDES facility locations,AKR06AD05,110070518772,WARBELOW'S AIR VENTURES INC,FAIRBANKS,AK,Fairbanks North Star,Terminated,General Permit Covered Facility,NON-POTW,NA,NA,NA,NA,0,21.9,47.730000000000004,620.81,NA,NA,64.8128200000411,-147.84356000031596,FALSE,FALSE
11,EPA ECHO CWA/NPDES facility locations,AKU000154,110015735702,CONSTRUCTION SITE,PALMER,AK,Matanuska-Susitna,Unknown status,Unpermitted Facility,NON-POTW,NA,NA,NA,NA,0,15.239999999999998,24.650000000000002,396.57,N,"Eklutna Native Village - 8 mile(s), Knik Tribe - 17 mile(s)",61.561269999918494,-149.286720000018,TRUE,FALSE
12,EPA ECHO CWA/NPDES facility locations,AKG370B50,110064414290,MISCOVICH CHATHAM CREEK MINE SITE,FAIRBANKS,AK,Unknown county,Terminated,General Permit Covered Facility,NON-POTW,NA,NA,NA,NA,0,25.71,44.78,1093.1899999999998,NA,NA,64.84702000009351,-147.75849000015302,FALSE,FALSE
13,EPA ECHO CWA/NPDES facility locations,AKU000153,110015735695,COMMERCIAL SITE,WASILLA,AK,Matanuska-Susitna,Unknown status,Unpermitted Facility,NON-POTW,NA,NA,NA,NA,0,17.36,24.459999999999997,551.4399999999999,N,"Eklutna Native Village - 11 mile(s), Knik Tribe - 19 mile(s)",61.599443999848496,-149.24825000011498,TRUE,FALSE
14,EPA ECHO CWA/NPDES facility locations,AKR10B027,110009691324,ALASKA DOT AND PUBLIC FACILITIES,PALMER,AK,Matanuska-Susitna,Terminated,General Permit Covered Facility,NON-POTW,NA,NA,NA,NA,0,19.56,25.18,324.58,N,"Eklutna Native Village - 14 mile(s), Knik Tribe - 22 mile(s)",61.6384299998602,-149.19316999969197,TRUE,FALSE
15,EPA ECHO CWA/NPDES facility locations,AKG370110,110028063814,DONALD STEIN / PEDRO CREEK,UNKNOWN,AK,Fairbanks North Star,Terminated,General Permit Covered Facility,NON-POTW,NA,NA,NA,NA,0,40,20,0.53,NA,NA,65.0333329999439,-147.46666699980898,FALSE,FALSE
16,EPA ECHO CWA/NPDES facility locations,AKU000086,110015736596,COMMERCIAL PAD (N. HYER ROAD),WASILLA,AK,Matanuska-Susitna,Unknown status,Unpermitted Facility,NON-POTW,NA,NA,NA,NA,0,16.69,23.99,497.98999999999995,N,"Eklutna Native Village - 8 mile(s), Knik Tribe - 16 mile(s)",61.569778000096804,-149.31622199986197,TRUE,FALSE
17,EPA ECHO CWA/NPDES facility locations,AKNOE0063,110071525869,FEDEX EXPRESS-HOMA,HOMER,AK,Kenai Peninsula,Effective,General Permit Covered Facility,NON-POTW,NA,NA,NA,NA,0,24.93,24.279999999999998,289.01,N,"Seldovia Village Tribe - 17 mile(s), Native Village of Port Graham - 24 mile(s), Native Village of Nanwalek (aka English Bay) - 25 mile(s)",59.6439000001479,-151.492999999592,TRUE,FALSE
18,EPA ECHO CWA/NPDES facility locations,AK0001015,110028065108,UNKNOWN,ANCHORAGE,AK,Anchorage Municipality,Terminated,NPDES Individual Permit,NON-POTW,NA,NA,NA,NA,0,35.1,53.43,2765.06,N,"Knik Tribe - 17 mile(s), Eklutna Native Village - 24 mile(s)",61.225544999865505,-149.889118999709,TRUE,FALSE
19,EPA ECHO CWA/NPDES facility locations,AKNOE0095,110071527095,BUS BARN,WASILLA,AK,Matanuska-Susitna,Admin Continued,General Permit Covered Facility,NON-POTW,NA,NA,NA,NA,0,25.45,23.09,241.58,N,"Knik Tribe - 9 mile(s), Eklutna Native Village - 13 mile(s)",61.5722000000271,-149.658999999726,TRUE,FALSE
20,EPA ECHO CWA/NPDES facility locations,AKR05C989,110044879502,RALPH WIEN MEMORIAL AIRPORT,KOTZEBUE,AK,Northwest Arctic,Terminated,General Permit Covered Facility,NON-POTW,NA,NA,NA,NA,0,17.12,75.44000000000001,239.6,N,Native Village of Kotzebue - 1 mile(s),66.88976799985609,-162.58894400003504,TRUE,FALSE
21,EPA ECHO CWA/NPDES facility locations,AKR10DT97,110045484506,"SPINELL HOMES, INC.-WESTPARK TRACT 2C",ANCHORAGE,AK,Anchorage Municipality,Terminated,General Permit Covered Facility,NON-POTW,NA,NA,NA,NA,0,14.77,41.720000000000006,2752.3700000000003,N,Knik Tribe - 24 mile(s),61.1436299999614,-149.99058000011,TRUE,FALSE
22,EPA ECHO CWA/NPDES facility locations,AKG374024,110070152042,STARLING NORTON SOUND LARGE DREDGE,NOME,AK,Nome (CA),Terminated,General Permit Covered Facility,NON-POTW,NA,NA,NA,NA,0,11.11,70.21000000000001,1.91,N,"Village of Solomon - 16 mile(s), Nome Eskimo Community - 17 mile(s)",64.44105000009611,-164.870949999971,TRUE,FALSE
23,EPA ECHO CWA/NPDES facility locations,AKG571043,110022967501,HERRING BAY OUTFALL,KETCHIKAN,AK,Prince of Wales-Outer Ketchikan(CA),Admin Continued,General Permit Covered Facility,NON-POTW,0.02,0.0025,NA,NA,0,10.68,28.25,105.16,N,"Metlakatla Indian Community, Annette Island Reserve - 3 mile(s), Organized Village of Saxman - 3 mile(s), Ketchikan Indian Community - 5 mile(s)",55.3271190001821,-131.52602699997902,TRUE,FALSE
24,EPA ECHO CWA/NPDES facility locations,AKU000224,110022967501,HERRING BAY SEWER OUTFALL,KETCHIKAN,AK,Ketchikan Gateway,Unknown status,Unpermitted Facility,NON-POTW,NA,NA,NA,NA,0,10.68,28.25,105.16,N,"Metlakatla Indian Community, Annette Island Reserve - 3 mile(s), Organized Village of Saxman - 3 mile(s), Ketchikan Indian Community - 5 mile(s)",55.3271190001821,-131.52602699997902,TRUE,FALSE
25,EPA ECHO CWA/NPDES facility locations,AK0043362,110056402879,"NAKNEK, CITY OF",NAKNEK,AK,Bristol Bay,Terminated,NPDES Individual Permit,POTW,NA,NA,NA,NA,0,20.69,51.720000000000006,1.81,N,"South Naknek Village - 2 mile(s), Naknek Native Village - 2 mile(s), King Salmon Tribe - 15 mile(s)",58.72459300010011,-157.05076199968,TRUE,FALSE
26,EPA ECHO CWA/NPDES facility locations,AKG573010,110056402879,NAKNEK LAGOON,NAKNEK,AK,Bristol Bay,Effective,General Permit Covered Facility,POTW,NA,NA,NA,NA,1,20.69,51.720000000000006,1.81,N,"South Naknek Village - 2 mile(s), Naknek Native Village - 2 mile(s), King Salmon Tribe - 15 mile(s)",58.72459300010011,-157.05076199968,TRUE,FALSE
27,EPA ECHO CWA/NPDES facility locations,AKG370A13,110064031621,NOME GOLD ALASKA CORPORATION - DRY CREEK,NOME,AK,Unknown county,Terminated,General Permit Covered Facility,NON-POTW,NA,NA,NA,NA,0,26.939999999999998,76.31,98.16999999999999,N,Nome Eskimo Community - 1 mile(s),64.504700000042,-165.39200000017001,TRUE,FALSE
28,EPA ECHO CWA/NPDES facility locations,AKG331140,110067184718,NABOR OPERATING CENTER FACILITY,DEADHORSE,AK,North Slope,Terminated,General Permit Covered Facility,NON-POTW,NA,NA,NA,NA,0,8.7,21.74,1.03,NA,NA,70.2039000000618,-148.45299999969603,FALSE,FALSE
29,EPA ECHO CWA/NPDES facility locations,AKG332004,110067184718,"NABORS ALASKA DRILLING INC., NABOR OPERATING CENTER FACILITY STORMWATER",DEADHORSE,AK,North Slope,Effective,General Permit Covered Facility,NON-POTW,NA,NA,NA,NA,0,8.7,21.74,1.03,NA,NA,70.2039000000618,-148.45299999969603,FALSE,FALSE
30,EPA ECHO CWA/NPDES facility locations,AKR06GB68,110070239281,CROWLEY KENAI AIRPORT FACILITY,KENAI,AK,Kenai Peninsula,Expired,General Permit Covered Facility,NON-POTW,NA,NA,NA,NA,2,31.99,31.19,250.55,N,"Kenaitze Indian Tribe - 1 mile(s), Salamatof Tribe - 4 mile(s)",60.5666939998653,-151.24391599999396,TRUE,FALSE
31,EPA ECHO CWA/NPDES facility locations,AKR10H0D7,110071501677,WILLOW STREET ROADWAY IMPROVEMENTS,KENAI,AK,Kenai Peninsula,Terminated,General Permit Covered Facility,NON-POTW,NA,NA,NA,NA,0,30.93,12.91,14.48,N,"Kenaitze Indian Tribe - 16 mile(s), Salamatof Tribe - 19 mile(s)",60.3402589999236,-151.14294900023603,TRUE,FALSE
32,EPA ECHO CWA/NPDES facility locations,AKR10FG46,110070145959,COPE PARK PHASE II IMPROVMENTS,JUNEAU,AK,Juneau City and Borough,Terminated,General Permit Covered Facility,NON-POTW,NA,NA,NA,NA,0,20.45,30.03,254.68,N,"Central Council of the Tlingit & Haida Indian Tribes - 1 mile(s), Douglas Indian Association - 3 mile(s)",58.304549999923395,-134.41384000028302,TRUE,FALSE
33,EPA ECHO CWA/NPDES facility locations,AKR10H040,110071339159,KOBUK SEPTIC AND DRAINFIELD REPLACEMENT,KOBUK,AK,Northwest Arctic,Terminated,General Permit Covered Facility,NON-POTW,NA,NA,NA,NA,0,100,100,0.04,N,"Native Village of Kobuk - 1 mile(s), Native Village of Shungnak - 8 mile(s)",66.90945900001522,-156.880922999652,TRUE,FALSE
34,EPA ECHO CWA/NPDES facility locations,AKG700060,110039170893,VENUS COVE LTF,WRANGELL,AK,Wrangell-Petersburg (CA),Expired,General Permit Covered Facility,NON-POTW,NA,NA,NA,NA,0,0,0,0.14,N,Wrangell Cooperative Association - 12 mile(s),56.35059999984739,-132.13300000011097,TRUE,FALSE
35,EPA ECHO CWA/NPDES facility locations,AKNOE0331,110071525881,DELTA WESTERN LLC - YAKUTAT,YAKUTAT,AK,Juneau City and Borough,Effective,General Permit Covered Facility,NON-POTW,NA,NA,NA,NA,0,0,50,0.09,N,Yakutat Tlingit Tribe - 1 mile(s),59.544699999955,-139.73299999985196,TRUE,FALSE
36,EPA ECHO CWA/NPDES facility locations,AK0025402,110039695185,"WHITTIER, CITY OF - WHITTIER WWTP",WHITTIER,AK,Unknown county,Admin Continued,NPDES Individual Permit,POTW,NA,NA,NA,NA,1,28.57,28.57,0.47000000000000003,NA,NA,60.7738699998352,-148.68030000007903,FALSE,FALSE
37,EPA ECHO CWA/NPDES facility locations,AKNOE0237,110071526798,ANCHORAGE DC,ANCHORAGE,AK,Anchorage Municipality,Admin Continued,General Permit Covered Facility,NON-POTW,NA,NA,NA,NA,0,34.03,57.6,3234.52,N,"Knik Tribe - 17 mile(s), Eklutna Native Village - 23 mile(s)",61.22030000015341,-149.84199999959,TRUE,FALSE
38,EPA ECHO CWA/NPDES facility locations,AKR06AB31,110043491780,ANCHORAGE FRITO LAY,ANCHORAGE,AK,Anchorage Municipality,Terminated,General Permit Covered Facility,NON-POTW,NA,NA,NA,NA,0,34.21,57.99,3220.29,N,"Knik Tribe - 17 mile(s), Eklutna Native Village - 23 mile(s)",61.22091000005601,-149.83821000021905,TRUE,FALSE
39,EPA ECHO CWA/NPDES facility locations,AKG002332,110071728031,NOME WEAR SEWER AND WATER LINE,NOME,AK,Nome (CA),Terminated,General Permit Covered Facility,NON-POTW,NA,NA,NA,NA,0,26.939999999999998,76.27,99.11999999999999,N,Nome Eskimo Community - 1 mile(s),64.49963199990661,-165.396750000338,TRUE,FALSE
40,EPA ECHO CWA/NPDES facility locations,AKR06AF72,110070364733,HALIBUT POINT MARINE SERVICES,SITKA,AK,Sitka City and Borough,Terminated,General Permit Covered Facility,NON-POTW,NA,NA,NA,NA,0,7.91,37.06,40.74,N,Sitka Tribe of Alaska - 5 mile(s),57.1152729998173,-135.390293999716,TRUE,FALSE
41,EPA ECHO CWA/NPDES facility locations,AKR10GO60,110071092602,LAKE LOUISE ROAD RESURFACING,GLENNALLEN,AK,Valdez-Cordova (CA),Terminated,General Permit Covered Facility,NON-POTW,NA,NA,NA,NA,0,33.33,66.66999999999999,0.11,NA,NA,62.1799999998149,-146.515000000211,FALSE,FALSE
42,EPA ECHO CWA/NPDES facility locations,AKR10GO64,110071092602,LAKE LOUISE ROAD RESURFACING _2,GLENNALLEN,AK,Valdez-Cordova (CA),Terminated,General Permit Covered Facility,NON-POTW,NA,NA,NA,NA,0,33.33,66.66999999999999,0.11,NA,NA,62.1799999998149,-146.515000000211,FALSE,FALSE
43,EPA ECHO CWA/NPDES facility locations,AKG130003,110070506496,PWSAC GULKANA AQUACULTURE FACILITY,CORDOVA,AK,Valdez-Cordova (CA),Admin Continued,General Permit Covered Facility,NON-POTW,NA,NA,NA,NA,2,33.33,66.66999999999999,0.11,NA,NA,63.06639999982511,-145.51469999967696,FALSE,FALSE
44,EPA ECHO CWA/NPDES facility locations,AKG370469,110010114027,FREITAS KAHILTNA RIVER MINE SITE,WILLOW,AK,Matanuska-Susitna,Terminated,General Permit Covered Facility,NON-POTW,NA,NA,NA,NA,0,0,0,0.07,NA,NA,61.94749999989859,-150.728000000103,FALSE,FALSE
45,EPA ECHO CWA/NPDES facility locations,AKG370470,110010114027,GOLD GULCH KAHILTNA RIVER MINE SITE,TRAPPER CREEK,AK,Matanuska-Susitna,Terminated,General Permit Covered Facility,NON-POTW,NA,NA,NA,NA,0,0,0,0.07,NA,NA,61.94749999989859,-150.728000000103,FALSE,FALSE
46,EPA ECHO CWA/NPDES facility locations,AKG371131,110010114027,RON ANDERSON / KAHILTNA RIVER,UNKNOWN,AK,Matanuska-Susitna,Terminated,General Permit Covered Facility,NON-POTW,NA,NA,NA,NA,0,0,0,0.07,NA,NA,61.94749999989859,-150.728000000103,FALSE,FALSE
47,EPA ECHO CWA/NPDES facility locations,AKG371138,110010114027,DANIEL FRIETAS / KAHILTNA RIVER,UNKNOWN,AK,Matanuska-Susitna,Terminated,General Permit Covered Facility,NON-POTW,NA,NA,NA,NA,0,0,0,0.07,NA,NA,61.94749999989859,-150.728000000103,FALSE,FALSE
48,EPA ECHO CWA/NPDES facility locations,AKG370D53,110071067795,FLOYD BENDER PUP MINE SITE,CENTRAL,AK,Yukon-Koyukuk (CA),Terminated,General Permit Covered Facility,NON-POTW,NA,NA,NA,NA,0,50,100,0.07,NA,NA,65.46669999997313,-145.055700000343,FALSE,FALSE
49,EPA ECHO CWA/NPDES facility locations,AKR10FU30,110071092394,EIE386 CONSOLIDATED MUNITIONS ADMIN FACILITY,FAIRBANKS,AK,Fairbanks North Star,Terminated,General Permit Covered Facility,NON-POTW,NA,NA,NA,NA,0,33.160000000000004,32.379999999999995,7.45,NA,NA,64.66706999995722,-147.072720000164,FALSE,FALSE
50,EPA ECHO CWA/NPDES facility locations,AKR10GJ81,110071220312,KOTZEBUE AIRPORT SUPPORT SITES,KOTZEBUE,AK,Northwest Arctic,Terminated,General Permit Covered Facility,NON-POTW,NA,NA,NA,NA,0,17.12,75.44000000000001,239.6,N,Native Village of Kotzebue - 1 mile(s),66.8921500000824,-162.60207999975597,TRUE,FALSE
51,EPA ECHO CWA/NPDES facility locations,AKR10GL45,110071220312,KOTZEBUE AIRPORT APRON PAVEMENT REHABILITATION_2,KOTZEBUE,AK,Northwest Arctic,Terminated,General Permit Covered Facility,NON-POTW,NA,NA,NA,NA,0,17.12,75.44000000000001,239.6,N,Native Village of Kotzebue - 1 mile(s),66.8921500000824,-162.60207999975597,TRUE,FALSE
52,EPA ECHO CWA/NPDES facility locations,AKR10H018,110071220312,KOTZEBUE AIRPORT RUNWAY SETTLEMENT REPAIR,KOTZEBUE,AK,Northwest Arctic,Terminated,General Permit Covered Facility,NON-POTW,NA,NA,NA,NA,0,17.12,75.44000000000001,239.6,N,Native Village of Kotzebue - 1 mile(s),66.8921500000824,-162.60207999975597,TRUE,FALSE
53,EPA ECHO CWA/NPDES facility locations,AKR10H01K,110071220312,KOTZEBUE AIRPORT RUNWAY SETTLEMENT REPAIR,KOTZEBUE,AK,Northwest Arctic,Terminated,General Permit Covered Facility,NON-POTW,NA,NA,NA,NA,0,17.12,75.44000000000001,239.6,N,Native Village of Kotzebue - 1 mile(s),66.8921500000824,-162.60207999975597,TRUE,FALSE
54,EPA ECHO CWA/NPDES facility locations,AKR10GP75,110071235971,SPRUCE TERRACES,ANCHORAGE,AK,Anchorage Municipality,Effective,General Permit Covered Facility,NON-POTW,NA,NA,NA,NA,1,12.11,25.439999999999998,551.42,NA,NA,61.0773999998838,-149.755999999663,FALSE,FALSE
55,EPA ECHO CWA/NPDES facility locations,AKR10H01X,110071311017,FORT WAINWRIGHT - AQUATICS CENTER,FORT WAINWRIGHT,AK,Fairbanks North Star,Terminated,General Permit Covered Facility,NON-POTW,NA,NA,NA,NA,0,30.53,41.760000000000005,404.47999999999996,NA,NA,64.82553000003598,-147.638789999685,FALSE,FALSE
56,EPA ECHO CWA/NPDES facility locations,AKR10GP34,110071222429,SEWARD NORTHEAST HARBOR LAUNCH RAMP RENOVATION,SEWARD,AK,Kenai Peninsula,Terminated,General Permit Covered Facility,NON-POTW,NA,NA,NA,NA,1,18.68,28.1,107.05,NA,NA,60.12025000017061,-149.43286000015698,FALSE,FALSE
57,EPA ECHO CWA/NPDES facility locations,AKR10GP12,110071204537,KIPNUK AIRPORT REHABILITATION,KIPNUK,AK,Bethel (CA),Terminated,General Permit Covered Facility,NON-POTW,NA,NA,NA,NA,0,64.71000000000001,100,0.81,N,"Native Village of Kipnuk - 1 mile(s), Village of Chefornak - 18 mile(s)",59.9347100000419,-164.036740000102,TRUE,FALSE
58,EPA ECHO CWA/NPDES facility locations,AKR10GP18,110071204537,KIPNUK AIRPORT REHABILITATION_2,KIPNUK,AK,Bethel (CA),Terminated,General Permit Covered Facility,NON-POTW,NA,NA,NA,NA,0,64.71000000000001,100,0.81,N,"Native Village of Kipnuk - 1 mile(s), Village of Chefornak - 18 mile(s)",59.9347100000419,-164.036740000102,TRUE,FALSE
59,EPA ECHO CWA/NPDES facility locations,AKR10GM45,110071220715,PAVEMENT MANAGEMENT PHASE II  COTTONWOOD DRIVE,VALDEZ,AK,Valdez-Cordova (CA),Terminated,General Permit Covered Facility,NON-POTW,NA,NA,NA,NA,0,12.67,34.37,35.06,N,Native Village of Tatitlek - 22 mile(s),61.1352500001826,-146.37590999998199,TRUE,FALSE
60,EPA ECHO CWA/NPDES facility locations,AKR10GM61,110071220715,PAVEMENT MANAGEMENT PHASE II COTTONWOOD DRIVE,VALDEZ,AK,Valdez-Cordova (CA),Terminated,General Permit Covered Facility,NON-POTW,NA,NA,NA,NA,0,12.67,34.37,35.06,N,Native Village of Tatitlek - 22 mile(s),61.1352500001826,-146.37590999998199,TRUE,FALSE
61,EPA ECHO CWA/NPDES facility locations,AKR05CF26,110070828170,FT WAINWRIGHT PUBLIC WORKS,FT WAINWRIGHT,AK,Fairbanks North Star,Terminated,General Permit Covered Facility,NON-POTW,NA,NA,NA,NA,0,30.919999999999998,41.379999999999995,485.91999999999996,NA,NA,64.82639000000928,-147.64957999963397,FALSE,FALSE
62,EPA ECHO CWA/NPDES facility locations,AKR06AE33,110070828170,FORT WAINWRIGHT CENTRAL HEAT AND POWER PLANT CHPP,FORT WAINWRIGHT,AK,Fairbanks North Star,Admin Continued,General Permit Covered Facility,NON-POTW,NA,NA,NA,NA,0,30.919999999999998,41.379999999999995,485.91999999999996,NA,NA,64.82639000000928,-147.64957999963397,FALSE,FALSE
63,EPA ECHO CWA/NPDES facility locations,AKU000277,110070828170,BEAVER CREEK ROAD CONSTRUCTION PROJECT,FORT WAINWRIGHT,AK,Fairbanks North Star,Unknown status,Unpermitted Facility,NON-POTW,NA,NA,NA,NA,0,30.919999999999998,41.379999999999995,485.91999999999996,NA,NA,64.82639000000928,-147.64957999963397,FALSE,FALSE
64,EPA ECHO CWA/NPDES facility locations,AKR10GN43,110071236164,"LOT 21, OLYMPUS SUBDIVISION",ANCHORAGE,AK,Anchorage Municipality,Terminated,General Permit Covered Facility,NON-POTW,NA,NA,NA,NA,0,20.110000000000003,45.36,3088.16,N,Knik Tribe - 24 mile(s),61.1307000001863,-149.91099999990598,TRUE,FALSE
65,EPA ECHO CWA/NPDES facility locations,AKR10GQ06,110071253808,WINTER ROSE PHASE 1,PALMER,AK,Matanuska-Susitna,Terminated,General Permit Covered Facility,NON-POTW,NA,NA,NA,NA,0,18.19,24.59,534.6800000000001,N,"Eklutna Native Village - 12 mile(s), Knik Tribe - 20 mile(s)",61.6107000001968,-149.24000000010597,TRUE,FALSE
66,EPA ECHO CWA/NPDES facility locations,AKR10H029,110071310469,"S7WAL WALTERS ST, WILDERNESS LN, SARAH ST & FRONTIER LN",HOMER,AK,Unknown county,Terminated,General Permit Covered Facility,NON-POTW,NA,NA,NA,NA,0,25.55,16.74,18.959999999999997,N,Seldovia Village Tribe - 25 mile(s),59.7167340001491,-151.302865000329,TRUE,FALSE
67,EPA ECHO CWA/NPDES facility locations,AKG520040,110071282004,PELICAN SEAFOODS,PELICAN,AK,Skagway-Hoonah-Angoon (CA),Terminated,General Permit Covered Facility,NON-POTW,NA,NA,NA,NA,0,25,25,0.2,NA,NA,57.9610220000074,-136.23606500018596,FALSE,FALSE
68,EPA ECHO CWA/NPDES facility locations,AKR10H0WK,110071960594,WASILLA-FISHHOOK RD PAVEMENT PRESERVATION,WASILLA,AK,Matanuska-Susitna,Effective,General Permit Covered Facility,NON-POTW,NA,NA,NA,NA,0,20.1,24.43,341.66,N,"Eklutna Native Village - 14 mile(s), Knik Tribe - 20 mile(s)",61.650899999960096,-149.314729999684,TRUE,FALSE
69,EPA ECHO CWA/NPDES facility locations,AK0037303,110071711138,TRIDENT SEAFOODS AKUTAN SHORE PLANT,AKUTAN,AK,Aleutians East,Effective,NPDES Individual Permit,NON-POTW,NA,NA,NA,NA,1,40,80,0.39,N,Native Village of Akutan - 1 mile(s),54.133137999815105,-165.79033200011,TRUE,FALSE
70,EPA ECHO CWA/NPDES facility locations,AKR06AE51,110071711138,TRIDENT SEAFOODS AKUTAN FACILITY,AKUTAN,AK,Aleutians East,Expired,General Permit Covered Facility,NON-POTW,NA,NA,NA,NA,0,40,80,0.39,N,Native Village of Akutan - 1 mile(s),54.133137999815105,-165.79033200011,TRUE,FALSE
71,EPA ECHO CWA/NPDES facility locations,AKR10GG91,110071157724,CHURCHILL MEADOWS SUBDIVISION,SOLDOTNA,AK,Kenai Peninsula,Terminated,General Permit Covered Facility,NON-POTW,NA,NA,NA,NA,0,22.04,24.04,168.52,N,"Kenaitze Indian Tribe - 8 mile(s), Salamatof Tribe - 11 mile(s)",60.4621000002144,-151.14999999996996,TRUE,FALSE
72,EPA ECHO CWA/NPDES facility locations,AKR061007,110070710024,FEDEX EXPRESS ANCR ANC-GP,ANCHORAGE,AK,Anchorage Municipality,Expired,General Permit Covered Facility,NON-POTW,NA,NA,NA,NA,0,20.87,40,2375.15,N,Knik Tribe - 21 mile(s),61.1905600001824,-149.99789000031,TRUE,FALSE
73,EPA ECHO CWA/NPDES facility locations,AKR10H0A5,110071438541,JNU PARKING LOT IMPROVEMENTS,JUNEAU,AK,Juneau City and Borough,Terminated,General Permit Covered Facility,NON-POTW,NA,NA,NA,NA,0,20.82,46.809999999999995,672.91,N,"Central Council of the Tlingit & Haida Indian Tribes - 8 mile(s), Douglas Indian Association - 10 mile(s)",58.35985000021549,-134.58181999971302,TRUE,FALSE
74,EPA ECHO CWA/NPDES facility locations,AKR10H07R,110071409466,MTA FTTX CHURCH RD,WASILLA,AK,Matanuska-Susitna,Terminated,General Permit Covered Facility,NON-POTW,NA,NA,NA,NA,0,30.4,23.150000000000002,549.53,N,"Eklutna Native Village - 11 mile(s), Knik Tribe - 13 mile(s)",61.59679999990951,-149.510850000274,TRUE,FALSE
75,EPA ECHO CWA/NPDES facility locations,AKG002268,110071402271,SGY DYEA RD #00049,SKAGWAY,AK,Skagway-Hoonah-Angoon (CA),Terminated,General Permit Covered Facility,NON-POTW,NA,NA,NA,NA,0,18.07,31.330000000000002,3.01,N,"Skagway Village - 1 mile(s), Chilkoot Indian Association (Haines) - 17 mile(s), Chilkat Indian Village (Klukwan) - 21 mile(s)",59.459616999810194,-135.326184000208,TRUE,FALSE
76,EPA ECHO CWA/NPDES facility locations,AKR10GQ67,110071277599,"OLYMPUS LOT 23A, BLOCK 9",ANCHORAGE,AK,Anchorage Municipality,Admin Continued,General Permit Covered Facility,NON-POTW,NA,NA,NA,NA,0,20.07,45.41,3095.53,N,Knik Tribe - 24 mile(s),61.130799999900304,-149.90999999982398,TRUE,FALSE
77,EPA ECHO CWA/NPDES facility locations,AKR10GQ94,110071277272,BENGAL FAMILY TRUST PROJECT,SOLDOTNA,AK,Kenai Peninsula,Admin Continued,General Permit Covered Facility,NON-POTW,NA,NA,NA,NA,0,29.14,18.07,221.33,N,"Kenaitze Indian Tribe - 10 mile(s), Salamatof Tribe - 13 mile(s)",60.495200000062496,-151.01699999974997,TRUE,FALSE
78,EPA ECHO CWA/NPDES facility locations,AKR10H0MB,110071816536,FREESTONE PONDS RECLAMATION,GIRDWOOD,AK,Anchorage Municipality,Terminated,General Permit Covered Facility,NON-POTW,NA,NA,NA,NA,0,15.629999999999999,10.94,2.46,NA,NA,60.7824300000235,-148.859032999649,FALSE,FALSE
79,EPA ECHO CWA/NPDES facility locations,AKG370229,110008998503,NB TWEET & SONS KOUGAROK RIVER DRAINAGE MINE SITE,NOME,AK,Nome (CA),Admin Continued,General Permit Covered Facility,NON-POTW,NA,NA,NA,NA,0,66.66999999999999,100,0.26,NA,NA,65.68000000010319,-164.80700000029603,FALSE,FALSE
80,EPA ECHO CWA/NPDES facility locations,AKG370D8D,110063017319,CARLOS MOOSE CREEK DRAINAGE MINE SITE,HEALY,AK,Denali,Admin Continued,General Permit Covered Facility,NON-POTW,NA,NA,NA,NA,0,20,20,0.18,NA,NA,64.0324079998723,-148.95882000029704,FALSE,FALSE
81,EPA ECHO CWA/NPDES facility locations,AKR10CJ18,110071297991,CHERI LAKE LID,HOUSTON,AK,Matanuska-Susitna,Terminated,General Permit Covered Facility,NON-POTW,NA,NA,NA,NA,0,25.1,17.650000000000002,121.51,N,"Knik Tribe - 11 mile(s), Eklutna Native Village - 17 mile(s)",61.607150000180205,-149.736050000035,TRUE,FALSE
82,EPA ECHO CWA/NPDES facility locations,AKR10H08B,110071443947,YUUT EXPANSION AND RENO OF THE KUSKOKWIM LEARNING ACADEMY,BETHEL,AK,Bethel (CA),Terminated,General Permit Covered Facility,NON-POTW,NA,NA,NA,NA,1,27.37,79.17999999999999,91.7,N,"Orutsararmiut Traditional Native Council - 2 mile(s), Oscarville Traditional Village - 5 mile(s), Native Village of Napaskiak - 7 mile(s), Native Village of Napakiak - 9 mile(s), Organized Village of Kwethluk - 13 mile(s), Akiachak Native Community - 15 mile(s), Akiak Native Community - 22 mile(s), Village of Atmautluak - 24 mile(s), Native Village of Nunapitchuk - 24 mile(s)",60.79725999998371,-161.79318999982596,TRUE,FALSE
83,EPA ECHO CWA/NPDES facility locations,AKG521008,110071278055,"ALASKA WILD SEAFOOD PARTNERS, LLC",CORDOVA,AK,Valdez-Cordova (CA),Effective,General Permit Covered Facility,NON-POTW,NA,NA,NA,NA,1,27.25,34.67,19.9,N,Native Village of Eyak (Cordova) - 3 mile(s),60.542649999833195,-145.76179999990097,TRUE,FALSE
84,EPA ECHO CWA/NPDES facility locations,AKR10H0WE,110071959714,OPA EKLUTNA PLAZA,EAGLE RIVER,AK,Anchorage Municipality,Effective,General Permit Covered Facility,NON-POTW,NA,NA,NA,NA,0,11.370000000000001,24.52,813.12,N,"Knik Tribe - 10 mile(s), Eklutna Native Village - 11 mile(s)",61.340719999984,-149.560290000051,TRUE,FALSE
85,EPA ECHO CWA/NPDES facility locations,AKG370100,110028063798,L & L MINING - EAGLE CREEK PLACER MINE,FAIRBANKS,AK,Fairbanks North Star,Terminated,General Permit Covered Facility,NON-POTW,NA,NA,NA,NA,0,16.69,29.55,157.51,NA,NA,64.93446999983462,-147.61926000018096,FALSE,FALSE
86,EPA ECHO CWA/NPDES facility locations,AKNOE0350,110071946503,MERRILL FIELD AIRPORT STODDARD AERO SERVICE INC,ANCHORAGE,AK,Anchorage Municipality,Effective,General Permit Covered Facility,NON-POTW,NA,NA,NA,NA,0,33.48,57.9,3451.23,N,"Knik Tribe - 17 mile(s), Eklutna Native Village - 23 mile(s)",61.2171200001041,-149.827329999858,TRUE,FALSE
87,EPA ECHO CWA/NPDES facility locations,AKG370979,110063602579,SCOTHORN TOTATALANIKA CREEK MINE SITE,UNKNOWN,AK,Unknown county,Terminated,General Permit Covered Facility,NON-POTW,NA,NA,NA,NA,0,34.78,35.71,0.99,NA,NA,64.2355000000957,-147.79330000038198,FALSE,FALSE
88,EPA ECHO CWA/NPDES facility locations,AKG370B11,110064414940,ALASKA MINING EXPEDITION CO UNNAMED TRIBUTARY MINE SITE,CHICKEN,AK,Unknown county,Terminated,General Permit Covered Facility,NON-POTW,NA,NA,NA,NA,0,100,100,0.04,NA,NA,64.1218899999205,-141.55995999985495,FALSE,FALSE
89,EPA ECHO CWA/NPDES facility locations,AKG370B31,110064415930,JONES GOLD DUST CREEK MINE SITE,CENTRAL,AK,Unknown county,Terminated,General Permit Covered Facility,NON-POTW,NA,NA,NA,NA,0,50,100,0.07,NA,NA,65.42871000002819,-145.521199999765,FALSE,FALSE
90,EPA ECHO CWA/NPDES facility locations,AKR10C460,110037956307,MATANUSKA-SUSITNA BOROUGH,PORT MACKENZIE,AK,Unknown county,Pending,General Permit Covered Facility,NON-POTW,NA,NA,NA,NA,0,43.3,30.25,14.46,N,"Knik Tribe - 9 mile(s), Eklutna Native Village - 21 mile(s)",61.4282899999696,-149.97536999970498,TRUE,FALSE
91,EPA ECHO CWA/NPDES facility locations,AKG331132,110063888707,"SLEIGH CAMPS #1 & #2, SAEXPLORATION",PRUDHOE BAY,AK,North Slope,Terminated,General Permit Covered Facility,NON-POTW,NA,NA,NA,NA,0,8.7,21.74,1.03,NA,NA,69.8368009999061,-149.86569000015598,FALSE,FALSE
92,EPA ECHO CWA/NPDES facility locations,AKU000270,110044268958,ENTERPRISE CAR RENTALS,ANCHORAGE,AK,Anchorage Municipality,Unknown status,Unpermitted Facility,NON-POTW,NA,NA,NA,NA,0,23.93,50.06,3724.67,N,Knik Tribe - 21 mile(s),61.1736199998144,-149.874072000409,TRUE,FALSE
93,EPA ECHO CWA/NPDES facility locations,AKR10H10R,110072143704,USPS ANCHORAGE PDC,ANCHORAGE,AK,Anchorage Municipality,Effective,General Permit Covered Facility,NON-POTW,NA,NA,NA,NA,0,22.39,43.03,3285.14,N,Knik Tribe - 21 mile(s),61.1829199997873,-149.98821000004904,TRUE,FALSE
94,EPA ECHO CWA/NPDES facility locations,AKR10H0ZZ,110072104316,INDIAN PASS TRAIL,INDIAN,AK,Anchorage Municipality,Effective,General Permit Covered Facility,NON-POTW,NA,NA,NA,NA,0,15.629999999999999,10.94,2.46,NA,NA,61.004937000157,-149.500244000448,FALSE,FALSE
95,EPA ECHO CWA/NPDES facility locations,AKR10H0XF,110071996540,AMERICAN CHARTER ACADEMY - WASILLA,WASILLA,AK,Matanuska-Susitna,Effective,General Permit Covered Facility,NON-POTW,NA,NA,NA,NA,0,29.14,21.310000000000002,438.41999999999996,N,"Eklutna Native Village - 13 mile(s), Knik Tribe - 14 mile(s)",61.617266999875994,-149.51160599995896,TRUE,FALSE
96,EPA ECHO CWA/NPDES facility locations,AKNOE0337,110000780049,BAKER HUGHES KENAI UPSTREAM CHEMICALS,KENAI,AK,Kenai Peninsula,Effective,General Permit Covered Facility,NON-POTW,NA,NA,NA,NA,0,33.48,34.91,249.83,N,"Salamatof Tribe - 1 mile(s), Kenaitze Indian Tribe - 4 mile(s)",60.58405900000199,-151.32315200024098,TRUE,FALSE
97,EPA ECHO CWA/NPDES facility locations,AKR06AD02,110000780049,BAKER HUGHES KENAI UPSTREAM CHEMICALS,KENAI,AK,Kenai Peninsula,Terminated,General Permit Covered Facility,NON-POTW,NA,NA,NA,NA,0,33.48,34.91,249.83,N,"Salamatof Tribe - 1 mile(s), Kenaitze Indian Tribe - 4 mile(s)",60.58405900000199,-151.32315200024098,TRUE,FALSE
98,EPA ECHO CWA/NPDES facility locations,AKG521055,110064604094,SILVER BAY SEAFOODS VALDEZ PLANT,VALDEZ,AK,Unknown county,Effective,General Permit Covered Facility,NON-POTW,NA,NA,NA,NA,2,13.11,34.53,35.809999999999995,N,Native Village of Tatitlek - 22 mile(s),61.1249630000092,-146.346856999676,TRUE,FALSE
99,EPA ECHO CWA/NPDES facility locations,AKG523061,110064604094,SILVER BAY SEAFOODS VALDEZ PLANT,VALDEZ,AK,Unknown county,Admin Continued,General Permit Covered Facility,NON-POTW,NA,NA,NA,NA,1,13.11,34.53,35.809999999999995,N,Native Village of Tatitlek - 22 mile(s),61.1249630000092,-146.346856999676,TRUE,FALSE
100,EPA ECHO CWA/NPDES facility locations,AKR06AD73,110064604094,"SILVER BAY SEAFOODS, VALDEZ",VALDEZ,AK,Unknown county,Admin Continued,General Permit Covered Facility,NON-POTW,NA,NA,NA,NA,1,13.11,34.53,35.809999999999995,N,Native Village of Tatitlek - 22 mile(s),61.1249630000092,-146.346856999676,TRUE,FALSE
101,EPA ECHO CWA/NPDES facility locations,AKR10EY81,110064604094,SILVER BAY SEAFOODS-VALDEZ LLC,VALDEZ,AK,Valdez-Cordova (CA),Terminated,General Permit Covered Facility,NON-POTW,NA,NA,NA,NA,0,13.11,34.53,35.809999999999995,N,Native Village of Tatitlek - 22 mile(s),61.1249630000092,-146.346856999676,TRUE,FALSE
102,EPA ECHO CWA/NPDES facility locations,AKR10EY85,110064604094,SILVER BAY SEAFOODS-VALDEZ LLC,VALDEZ,AK,Valdez-Cordova (CA),Terminated,General Permit Covered Facility,NON-POTW,NA,NA,NA,NA,0,13.11,34.53,35.809999999999995,N,Native Village of Tatitlek - 22 mile(s),61.1249630000092,-146.346856999676,TRUE,FALSE
103,EPA ECHO CWA/NPDES facility locations,AKG572057,110054899623,MAJESTIC EAGLE LODGE WWTF,PETERSBURG,AK,Petersburg Census Area,Effective,General Permit Covered Facility,NON-POTW,NA,NA,NA,NA,0,33.33,33.33,0.14,N,Petersburg Indian Association - 9 mile(s),56.668430000145605,-132.93797099990098,TRUE,FALSE
104,EPA ECHO CWA/NPDES facility locations,AKG376270,110013666041,TOMMY W BATES / COTTONWOOD CREEK,UNKNOWN,AK,Matanuska-Susitna,Terminated,General Permit Covered Facility,NON-POTW,NA,NA,NA,NA,0,19.89,22.16,670.9499999999999,N,"Eklutna Native Village - 10 mile(s), Knik Tribe - 17 mile(s)",61.5975999999904,-149.316400000137,TRUE,FALSE
105,EPA ECHO CWA/NPDES facility locations,AK0051004,110070258155,KITOI BAY HATCHERY,KODIAK,AK,Anchorage Municipality,Pending,NPDES Individual Permit,NON-POTW,NA,NA,NA,NA,0,33.33,66.66999999999999,0.27,N,"Native Village of Afognak - 20 mile(s), Native Village of Ouzinkie - 20 mile(s)",58.191303999994304,-152.37202899983902,TRUE,FALSE
106,EPA ECHO CWA/NPDES facility locations,AKG130015,110070258155,KRAA KITOI BAY AQUACULTURE FACILITY,KODIAK,AK,Kodiak Island,Admin Continued,General Permit Covered Facility,NON-POTW,NA,NA,NA,NA,1,33.33,66.66999999999999,0.27,N,"Native Village of Afognak - 20 mile(s), Native Village of Ouzinkie - 20 mile(s)",58.191303999994304,-152.37202899983902,TRUE,FALSE
107,EPA ECHO CWA/NPDES facility locations,AKR10BD74,110003037339,POWDER RIDGE SUBDIVISION,EAGLE RIVER,AK,Anchorage Municipality,Terminated,General Permit Covered Facility,NON-POTW,NA,NA,NA,NA,0,11.239999999999998,24.4,823.61,N,"Knik Tribe - 10 mile(s), Eklutna Native Village - 11 mile(s)",61.3405709998285,-149.557397999758,TRUE,FALSE
108,EPA ECHO CWA/NPDES facility locations,AKNOE0325,110003044465,AMAZON.COM SERVICES LLC - WGE2,ANCHORAGE,AK,Anchorage Municipality,Effective,General Permit Covered Facility,NON-POTW,NA,NA,NA,NA,0,23.69,50.07,3577.27,N,Knik Tribe - 21 mile(s),61.1670999998642,-149.868060000218,TRUE,FALSE
109,EPA ECHO CWA/NPDES facility locations,AKR10DE19,110028040867,NOME JOINT UTILITY SYSTEM,NOME,AK,Nome (CA),Terminated,General Permit Covered Facility,NON-POTW,NA,NA,NA,NA,0,27.08,76.4,118.08,N,Nome Eskimo Community - 2 mile(s),64.5031110000881,-165.455805999904,TRUE,FALSE
110,EPA ECHO CWA/NPDES facility locations,AKG572008,110070256753,"HILCORP ALASKA, LLC CENTRAL SEWAGE TREATMENT FACILITY",PRUDHOE BAY,AK,North Slope,Effective,General Permit Covered Facility,NON-POTW,NA,NA,NA,NA,1,8.7,21.74,1.03,NA,NA,70.31091299987601,-148.61693700003602,FALSE,FALSE
111,EPA ECHO CWA/NPDES facility locations,AKU000132,110015736266,DISCOVERY HOMES,ANCHORAGE,AK,Anchorage Municipality,Unknown status,Unpermitted Facility,NON-POTW,NA,NA,NA,NA,0,12.43,25.89,612,N,Knik Tribe - 23 mile(s),61.1268499999469,-149.74109999977796,TRUE,FALSE
112,EPA ECHO CWA/NPDES facility locations,AKR05DA35,110040067012,HC CONTRACTORS INC,FAIRBANKS,AK,Fairbanks North Star,Terminated,General Permit Covered Facility,NON-POTW,NA,NA,NA,NA,0,18.85,20.9,193.73,NA,NA,64.80942999990752,-147.54345000015397,FALSE,FALSE
113,EPA ECHO CWA/NPDES facility locations,AKG002223,110071336149,"ANC TAXIWAYS K, G1, AND J IMPROVEMENTS",ANCHORAGE,AK,Anchorage Municipality,Terminated,General Permit Covered Facility,NON-POTW,NA,NA,NA,NA,0,18.58,40.9,2925.74,N,Knik Tribe - 22 mile(s),61.17059999997521,-150.00499999959598,TRUE,FALSE
114,EPA ECHO CWA/NPDES facility locations,AKR10DZ85,110058925016,HAXBY TR C G 1830,ANCHORAGE,AK,Anchorage Municipality,Terminated,General Permit Covered Facility,NON-POTW,NA,NA,NA,NA,0,29.09,48.52,3034.53,N,"Knik Tribe - 18 mile(s), Eklutna Native Village - 25 mile(s)",61.21805599982411,-149.900277999729,TRUE,FALSE
115,EPA ECHO CWA/NPDES facility locations,AKR10FM71,110058925016,HAXBY TR C G 1830,ANCHORAGE,AK,Anchorage Municipality,Terminated,General Permit Covered Facility,NON-POTW,NA,NA,NA,NA,0,29.09,48.52,3034.53,N,"Knik Tribe - 18 mile(s), Eklutna Native Village - 25 mile(s)",61.21805599982411,-149.900277999729,TRUE,FALSE
116,EPA ECHO CWA/NPDES facility locations,AKG374010,110063017872,PHOENIX OFFSHORE NORTON SOUND LARGE DREDGE(S),NOME,AK,Nome (CA),Terminated,General Permit Covered Facility,NON-POTW,NA,NA,NA,NA,0,25.259999999999998,75.66,100.08,N,Nome Eskimo Community - 3 mile(s),64.50118999985771,-165.49222200011303,TRUE,FALSE
117,EPA ECHO CWA/NPDES facility locations,AKG374011,110063017872,PHOENIX OFFHSORE NORTON SOUND LARGE DREDGE,NOME,AK,Nome (CA),Terminated,General Permit Covered Facility,NON-POTW,NA,NA,NA,NA,0,25.259999999999998,75.66,100.08,N,Nome Eskimo Community - 3 mile(s),64.50118999985771,-165.49222200011303,TRUE,FALSE
118,EPA ECHO CWA/NPDES facility locations,AKG520007,110028072163,PORT GRAHAM SEAFOODS,PORT GRAHAM,AK,Kenai Peninsula,Terminated,General Permit Covered Facility,NON-POTW,NA,NA,NA,NA,0,40,50,1.02,N,"Native Village of Port Graham - 1 mile(s), Native Village of Nanwalek (aka English Bay) - 4 mile(s), Seldovia Village Tribe - 8 mile(s)",59.35222200021159,-151.82527799993503,TRUE,FALSE
119,EPA ECHO CWA/NPDES facility locations,AKG371207,110028066349,BRIAN MICHAEL BERKHAHN / EAST FORK,UNKNOWN,AK,Unknown county,Terminated,General Permit Covered Facility,NON-POTW,NA,NA,NA,NA,0,0,22.22,0.33999999999999997,NA,NA,60.78333299978931,-149.39999999986497,FALSE,FALSE
120,EPA ECHO CWA/NPDES facility locations,AKG331126,110059700337,MINE SITE E-GRAVEL PIT DEWATERING,PRUDHOE BAY,AK,North Slope,Terminated,General Permit Covered Facility,NON-POTW,NA,NA,NA,NA,0,8.7,21.74,1.03,N,Native Village of Nuiqsut (aka Nooiksut) - 15 mile(s),70.40000000013711,-150.66666700036197,TRUE,FALSE
121,EPA ECHO CWA/NPDES facility locations,AKG371468,110059803440,TURNBOW NORTON SOUND SUCTION DREDGE,NOME,AK,Nome (CA),Terminated,General Permit Covered Facility,NON-POTW,NA,NA,NA,NA,0,26.88,76.31,90.8,N,Nome Eskimo Community - 2 mile(s),64.49015000015561,-165.36511000023702,TRUE,FALSE
122,EPA ECHO CWA/NPDES facility locations,AKU000131,110015736257,OBEDEI AUTO LOT,ANCHORAGE,AK,Anchorage Municipality,Unknown status,Unpermitted Facility,NON-POTW,NA,NA,NA,NA,0,23.32,49.89,3362.3100000000004,N,Knik Tribe - 21 mile(s),61.16194399988181,-149.865556000262,TRUE,FALSE
123,EPA ECHO CWA/NPDES facility locations,AKU000228,110028070771,"BENCHOFF, MIKE",NOME,AK,Unknown county,Unknown status,Unpermitted Facility,NON-POTW,NA,NA,NA,NA,0,66.66999999999999,100,0.26,N,Native Village of Mary's Igloo - 20 mile(s),65.43089999986782,-165.065200000091,TRUE,FALSE
124,EPA ECHO CWA/NPDES facility locations,AK0028070,110006651792,PETERSBURG TREE NURSERY,PETERSBURG,AK,Wrangell-Petersburg (CA),Pending,NPDES Individual Permit,NON-POTW,NA,NA,NA,NA,0,22.49,41.43,134.87,N,Petersburg Indian Association - 3 mile(s),56.792079999862004,-132.976290000192,TRUE,FALSE
125,EPA ECHO CWA/NPDES facility locations,AKR10BU58,110037115948,WESTERN CONSTRUCTION SERVICES,JUNEAU,AK,Juneau City and Borough,Terminated,General Permit Covered Facility,NON-POTW,NA,NA,NA,NA,0,21.150000000000002,49.56,645.3399999999999,N,"Central Council of the Tlingit & Haida Indian Tribes - 7 mile(s), Douglas Indian Association - 9 mile(s)",58.3585000001782,-134.553100000392,TRUE,FALSE
126,EPA ECHO CWA/NPDES facility locations,AKU000159,110015735757,FIRE CREEK APARTMENTS,EAGLE RIVER,AK,Anchorage Municipality,Unknown status,Unpermitted Facility,NON-POTW,NA,NA,NA,NA,0,12.07,25.12,741.81,N,"Eklutna Native Village - 10 mile(s), Knik Tribe - 10 mile(s)",61.3467500001916,-149.553778000267,TRUE,FALSE
127,EPA ECHO CWA/NPDES facility locations,AKG520125,110028070717,S: MARSHALL PLANT,MARSHALL,AK,Wade Hampton (CA),Terminated,General Permit Covered Facility,NON-POTW,NA,NA,NA,NA,0,75,100,0.15000000000000002,N,Native Village of Marshall (aka Fortuna Ledge) - 7 mile(s),61.9659249998695,-162.002383000387,TRUE,FALSE
128,EPA ECHO CWA/NPDES facility locations,AKG700056,110039170802,ST  JOHNS LTF,WRANGELL,AK,Wrangell-Petersburg (CA),Expired,General Permit Covered Facility,NON-POTW,NA,NA,NA,NA,0,0,0,0.14,N,"Petersburg Indian Association - 25 mile(s), Wrangell Cooperative Association - 25 mile(s)",56.4411110002007,-132.97333299960098,TRUE,FALSE
129,EPA ECHO CWA/NPDES facility locations,AKG371528,110059700532,KENNEDY NORTON SOUND SUCTION DREDGE,NOME,AK,Nome (CA),Terminated,General Permit Covered Facility,NON-POTW,NA,NA,NA,NA,0,26.85,76.26,92.17999999999999,N,Nome Eskimo Community - 3 mile(s),64.48012999985112,-165.351089999885,TRUE,FALSE
130,EPA ECHO CWA/NPDES facility locations,AKG371532,110059700541,JONES NORTON SOUND SUCTION DREDGE,NOME,AK,Nome (CA),Terminated,General Permit Covered Facility,NON-POTW,NA,NA,NA,NA,0,26.88,76.31,90.8,N,Nome Eskimo Community - 2 mile(s),64.49015000015561,-165.36511000023702,TRUE,FALSE
131,EPA ECHO CWA/NPDES facility locations,AKU000074,110015736471,ALASKA DOT,EKLUTNA,AK,Anchorage Municipality,Unknown status,Unpermitted Facility,NON-POTW,NA,NA,NA,NA,0,8.28,22.759999999999998,5.430000000000001,N,"Eklutna Native Village - 2 mile(s), Knik Tribe - 14 mile(s)",61.44794400021089,-149.312055000025,TRUE,FALSE
132,EPA ECHO CWA/NPDES facility locations,AKU000077,110015736505,CLOUD'S REST SUBDIVISION,WASILLA,AK,Matanuska-Susitna,Unknown status,Unpermitted Facility,NON-POTW,NA,NA,NA,NA,0,15.11,23.259999999999998,354.01,N,"Eklutna Native Village - 7 mile(s), Knik Tribe - 16 mile(s)",61.55477799979499,-149.312527999853,TRUE,FALSE
133,EPA ECHO CWA/NPDES facility locations,AKR10BU35,110037115939,NEESER CONSTRUCTION COMPANY INC,ANCHORAGE,AK,Anchorage Municipality,Terminated,General Permit Covered Facility,NON-POTW,NA,NA,NA,NA,0,34.120000000000005,62.660000000000004,2715.36,N,"Knik Tribe - 18 mile(s), Eklutna Native Village - 22 mile(s)",61.20972999982581,-149.733439999774,TRUE,FALSE
134,EPA ECHO CWA/NPDES facility locations,AKR05CD71,110041250516,WEAVER BROTHERS INC FAIRBANKS,FAIRBANKS,AK,Fairbanks North Star,Terminated,General Permit Covered Facility,NON-POTW,NA,NA,NA,NA,0,29.59,43.14,686.76,NA,NA,64.81481699991532,-147.70651399973497,FALSE,FALSE
135,EPA ECHO CWA/NPDES facility locations,AKR06AC84,110070518816,US ARMY GARRISON FORT GREELY,FORT GREELY,AK,Southeast Fairbanks (CA),Admin Continued,General Permit Covered Facility,NON-POTW,NA,NA,NA,NA,0,66.66999999999999,25,0.15000000000000002,NA,NA,63.96859999998551,-145.693999999684,FALSE,FALSE
136,EPA ECHO CWA/NPDES facility locations,AKG330056,110058933613,KUUKPIK ARCTIC CATERING,UMIAT,AK,North Slope,Terminated,General Permit Covered Facility,NON-POTW,NA,NA,NA,NA,0,NA,NA,0,NA,NA,69.37378300005088,-152.15149499968302,FALSE,FALSE
137,EPA ECHO CWA/NPDES facility locations,AKG330092,110058933613,ARCTIC WOLF CAMP WASTEWATER TREATMENT PLANT,UNKNOWN,AK,North Slope,Not Needed,General Permit Covered Facility,NON-POTW,NA,NA,NA,NA,0,NA,NA,0,NA,NA,69.37378300005088,-152.15149499968302,FALSE,FALSE
138,EPA ECHO CWA/NPDES facility locations,AKG330103,110058933613,"RENAISSANCE UMIAT:, LLC OPERATING ARCTIC WOLF CAMP",UMIAT,AK,North Slope,Terminated,General Permit Covered Facility,NON-POTW,NA,NA,NA,NA,0,NA,NA,0,NA,NA,69.37378300005088,-152.15149499968302,FALSE,FALSE
139,EPA ECHO CWA/NPDES facility locations,AKR10GA94,110070625101,NELSON ROAD MULTI-USE PATHWAY,WASILLA,AK,Matanuska-Susitna,Terminated,General Permit Covered Facility,NON-POTW,NA,NA,NA,NA,0,16.05,22.97,389.28999999999996,N,"Eklutna Native Village - 8 mile(s), Knik Tribe - 16 mile(s)",61.557799999838394,-149.32403000000403,TRUE,FALSE
140,EPA ECHO CWA/NPDES facility locations,AKR10GC09,110070625101,NELSON ROAD MULTI-USE PATHWAY,WASILLA,AK,Matanuska-Susitna,Terminated,General Permit Covered Facility,NON-POTW,NA,NA,NA,NA,0,16.05,22.97,389.28999999999996,N,"Eklutna Native Village - 8 mile(s), Knik Tribe - 16 mile(s)",61.557799999838394,-149.32403000000403,TRUE,FALSE
141,EPA ECHO CWA/NPDES facility locations,AKR10GC15,110070625101,NELSON ROAD MULTI-USE PATHWAY,WASILLA,AK,Matanuska-Susitna,Terminated,General Permit Covered Facility,NON-POTW,NA,NA,NA,NA,0,16.05,22.97,389.28999999999996,N,"Eklutna Native Village - 8 mile(s), Knik Tribe - 16 mile(s)",61.557799999838394,-149.32403000000403,TRUE,FALSE
142,EPA ECHO CWA/NPDES facility locations,AKR10H01Y,110070625101,NELSON ROAD PATHWAY,WASILLA,AK,Matanuska-Susitna,Terminated,General Permit Covered Facility,NON-POTW,NA,NA,NA,NA,0,16.05,22.97,389.28999999999996,N,"Eklutna Native Village - 8 mile(s), Knik Tribe - 16 mile(s)",61.557799999838394,-149.32403000000403,TRUE,FALSE
143,EPA ECHO CWA/NPDES facility locations,AKR10H026,110070625101,NELSON ROAD PATHWAY,WASILLA,AK,Matanuska-Susitna,Terminated,General Permit Covered Facility,NON-POTW,NA,NA,NA,NA,0,16.05,22.97,389.28999999999996,N,"Eklutna Native Village - 8 mile(s), Knik Tribe - 16 mile(s)",61.557799999838394,-149.32403000000403,TRUE,FALSE
144,EPA ECHO CWA/NPDES facility locations,AKR05DB50,110024271688,CARLILE TRANSPORTATION SYSTEM,FAIRBANKS,AK,Fairbanks North Star,Terminated,General Permit Covered Facility,NON-POTW,NA,NA,NA,NA,0,25.49,44.379999999999995,1091.96,NA,NA,64.85254000018038,-147.76177999993098,FALSE,FALSE
145,EPA ECHO CWA/NPDES facility locations,AKG520067,110010112920,SILVER BAY SEAFOODS METLAKATLA LLC,METLAKATLA ,AK,Ketchikan Gateway,Terminated,General Permit Covered Facility,NON-POTW,NA,NA,NA,NA,1,32.349999999999994,94.04,83.86999999999999,Y,"Metlakatla Indian Community, Annette Island Reserve - 0 mile(s), Organized Village of Saxman - 14 mile(s), Ketchikan Indian Community - 16 mile(s)",55.129197999866705,-131.57239299988797,TRUE,FALSE
146,EPA ECHO CWA/NPDES facility locations,AKG701053,110040078224,TOLSTOI BAY MHT LTF,THORNE BAY,AK,Prince of Wales-Outer Ketchikan(CA),Expired,General Permit Covered Facility,NON-POTW,NA,NA,NA,NA,0,21.95,19.05,2.69,N,"Organized Village of Kasaan - 15 mile(s), Klawock Cooperative Association - 24 mile(s)",55.6249999998427,-132.45599999987598,TRUE,FALSE
147,EPA ECHO CWA/NPDES facility locations,AKR10H0CK,110071500277,EVERGREEN AVENUE - AIRPORT ROAD PATHWAY,PALMER,AK,Matanuska-Susitna,Terminated,General Permit Covered Facility,NON-POTW,NA,NA,NA,NA,0,24.69,27.310000000000002,373.7,N,"Eklutna Native Village - 14 mile(s), Knik Tribe - 24 mile(s), Chickaloon Native Village - 25 mile(s)",61.60142999996249,-149.09514000043305,TRUE,FALSE
148,EPA ECHO CWA/NPDES facility locations,AKG370C79,110070381781,CIZEK MF IRON CREEK MINE SITE,TRAPPER CREEK,AK,Matanuska-Susitna,Terminated,General Permit Covered Facility,NON-POTW,NA,NA,NA,NA,0,23.259999999999998,4.6499999999999995,1.55,NA,NA,62.1921499998866,-150.21280999975997,FALSE,FALSE
149,EPA ECHO CWA/NPDES facility locations,AKR10H0CT,110071502655,100TH AVE SURFACE REHABILITATION MINNESOTA DR TO VICTOR RD.,ANCHORAGE,AK,Anchorage Municipality,Terminated,General Permit Covered Facility,NON-POTW,NA,NA,NA,NA,0,20.259999999999998,45.18,3061.16,N,Knik Tribe - 24 mile(s),61.13024500017971,-149.915177999614,TRUE,FALSE
150,EPA ECHO CWA/NPDES facility locations,AKR10H0CX,110071502655,100TH AVE SURFACE REHABILITATION MINNESOTA DR TO VICTOR RD,ANCHORAGE,AK,Anchorage Municipality,Terminated,General Permit Covered Facility,NON-POTW,NA,NA,NA,NA,0,20.259999999999998,45.18,3061.16,N,Knik Tribe - 24 mile(s),61.13024500017971,-149.915177999614,TRUE,FALSE
151,EPA ECHO CWA/NPDES facility locations,AKG370B54,110070151888,GROPPEL TENDERFOOT CREEK MINE SITE,DELTA JUNCTION,AK,Southeast Fairbanks (CA),Terminated,General Permit Covered Facility,NON-POTW,NA,NA,NA,NA,1,28.57,14.29,1.01,NA,NA,64.28729999988431,-146.2589999997,FALSE,FALSE
152,EPA ECHO CWA/NPDES facility locations,AKG370B88,110070151916,MP MINING GOLDEN CREEK MINE SITE,TANANA,AK,Yukon-Koyukuk (CA),Terminated,General Permit Covered Facility,NON-POTW,NA,NA,NA,NA,0,0,100,0.04,NA,NA,65.29166699987093,-153.04166700005598,FALSE,FALSE
153,EPA ECHO CWA/NPDES facility locations,AKG370B92,110070151922,BLACK DOG MINING-JACK CR MINE SITE,CHISTOCHINA,AK,Valdez-Cordova (CA),Terminated,General Permit Covered Facility,NON-POTW,NA,NA,NA,NA,0,33.33,66.66999999999999,0.11,N,Mentasta Traditional Council - 13 mile(s),63.01769999989929,-144.142349999588,TRUE,FALSE
154,EPA ECHO CWA/NPDES facility locations,AKG370C63,110070151970,THURMAN LONG CREEK MINE SITE,TRAPPER CREEK,AK,Matanuska-Susitna,Terminated,General Permit Covered Facility,NON-POTW,NA,NA,NA,NA,0,0,0,0.07,NA,NA,62.5258999998328,-150.88040000013103,FALSE,FALSE
155,EPA ECHO CWA/NPDES facility locations,AKG371505,110059803583,KELLY NORTON SOUND SUCTION DREDGE,NOME,AK,Nome (CA),Terminated,General Permit Covered Facility,NON-POTW,NA,NA,NA,NA,1,27.08,76.4,124.84,N,Nome Eskimo Community - 3 mile(s),64.49860000017651,-165.47599999993,TRUE,FALSE
156,EPA ECHO CWA/NPDES facility locations,AKG371506,110059803583,KELLY NORTON SOUND SUCTION DREDGE,NOME,AK,Nome (CA),Terminated,General Permit Covered Facility,NON-POTW,NA,NA,NA,NA,0,27.08,76.4,124.84,N,Nome Eskimo Community - 3 mile(s),64.49860000017651,-165.47599999993,TRUE,FALSE
157,EPA ECHO CWA/NPDES facility locations,AKG371558,110070151995,RACE WADE CREEK SUCTION DREDGE,CHICKEN,AK,Unknown county,Terminated,General Permit Covered Facility,NON-POTW,NA,NA,NA,NA,0,100,100,0.04,NA,NA,64.1641300000148,-141.425999999735,FALSE,FALSE
158,EPA ECHO CWA/NPDES facility locations,AKG371594,110070152022,NORTH PACIFIC GOLD NORTON SOUND SUCTION DREDGE,NOME,AK,Unknown county,Terminated,General Permit Covered Facility,NON-POTW,NA,NA,NA,NA,0,66.66999999999999,100,0.26,N,"Native Village of Teller - 13 mile(s), Native Village of Brevig Mission - 20 mile(s)",65.10888899996418,-166.108611000018,TRUE,FALSE
159,EPA ECHO CWA/NPDES facility locations,AKG573030,110070149749,KIPNUK COMMUNITY SEWAGE LAGOON,KIPNUK,AK,Bethel (CA),Effective,General Permit Covered Facility,POTW,NA,NA,NA,NA,0,64.71000000000001,100,0.81,N,"Native Village of Kipnuk - 1 mile(s), Village of Chefornak - 18 mile(s)",59.9298990000216,-164.063956000449,TRUE,FALSE
160,EPA ECHO CWA/NPDES facility locations,AKU000193,110070149749,KIPNUK SEWAGE LAGOON,KIPNUK,AK,Bethel (CA),Unknown status,Unpermitted Facility,NON-POTW,NA,NA,NA,NA,0,64.71000000000001,100,0.81,N,"Native Village of Kipnuk - 1 mile(s), Village of Chefornak - 18 mile(s)",59.9298990000216,-164.063956000449,TRUE,FALSE
161,EPA ECHO CWA/NPDES facility locations,AKG570045,110028069989,TOGIAK WASTEWATER TREATMENT FACILITY,TOGIAK,AK,Dillingham (CA),Terminated,General Permit Covered Facility,NON-POTW,NA,NA,NA,NA,0,50,75,0.16,N,"Traditional Village of Togiak - 1 mile(s), Twin Hills Village - 5 mile(s)",59.06130600007501,-160.394656000159,TRUE,FALSE
162,EPA ECHO CWA/NPDES facility locations,AK0021491,110039727267,"CRAIG, CITY OF",CRAIG,AK,Unknown county,Terminated,NPDES Individual Permit,POTW,NA,NA,NA,NA,0,25,37.37,26.54,N,"Craig Tribal Association - 6 mile(s), Klawock Cooperative Association - 8 mile(s)",55.467442000074,-133.14320900033798,TRUE,FALSE
163,EPA ECHO CWA/NPDES facility locations,AKR06AD64,110070519367,DILLINGHAM QUARRY,DILLINGHAM,AK,Dillingham (CA),Terminated,General Permit Covered Facility,NON-POTW,NA,NA,NA,NA,0,24.330000000000002,76.32,13.68,N,"Curyung Tribal Council - 5 mile(s), Native Village of Aleknagik - 15 mile(s), Village of Clarks Point - 16 mile(s), Native Village of Ekuk - 19 mile(s), Manokotak Village - 19 mile(s)",59.069443999971206,-158.576110000196,TRUE,FALSE
164,EPA ECHO CWA/NPDES facility locations,AKR06AB99,110070500369,ALASKA AIRLINES PRUDHOE BAY STATION,PRUDHOE BAY,AK,North Slope,Expired,General Permit Covered Facility,NON-POTW,NA,NA,NA,NA,0,8.7,21.74,1.03,NA,NA,70.19529999994232,-148.465999999873,FALSE,FALSE
165,EPA ECHO CWA/NPDES facility locations,AKR10H0DH,110071515180,MAT-SU CENTRAL SCHOOL AND TRUCK ROAD CONNECTOR,PALMER,AK,Matanuska-Susitna,Terminated,General Permit Covered Facility,NON-POTW,NA,NA,NA,NA,0,18.23,24.62,534.98,N,"Eklutna Native Village - 12 mile(s), Knik Tribe - 20 mile(s)",61.6120890000508,-149.241421000139,TRUE,FALSE
166,EPA ECHO CWA/NPDES facility locations,AKR10H0DL,110071526130,GOLDEN HEART UTILITIES,FAIRBANKS,AK,Fairbanks North Star,Terminated,General Permit Covered Facility,NON-POTW,NA,NA,NA,NA,0,18.25,21.130000000000003,235.22,NA,NA,64.82183799997689,-147.41979200008697,FALSE,FALSE
167,EPA ECHO CWA/NPDES facility locations,AKR06AD68,110070520446,FOSTER CONSTRUCTION,SOLDOTNA,AK,Kenai Peninsula,Terminated,General Permit Covered Facility,NON-POTW,NA,NA,NA,NA,0,22.25,31.62,226.46,N,"Kenaitze Indian Tribe - 3 mile(s), Salamatof Tribe - 6 mile(s)",60.5399999997851,-151.189999999685,TRUE,FALSE
168,EPA ECHO CWA/NPDES facility locations,AKG371626,110070358069,DONAGHY FORTYMILE RIVER SUCTION DREDGE,CHICKEN,AK,Unknown county,Terminated,General Permit Covered Facility,NON-POTW,NA,NA,NA,NA,0,100,100,0.04,NA,NA,64.28649999997072,-141.65659999994196,FALSE,FALSE
169,EPA ECHO CWA/NPDES facility locations,AKG371208,110028067419,BRIAN BERKHAHN / RESURRECTION CREEK,UNKNOWN,AK,Unknown county,Terminated,General Permit Covered Facility,NON-POTW,NA,NA,NA,NA,0,0,22.22,0.33999999999999997,NA,NA,60.866667000214584,-149.63333300035598,FALSE,FALSE
170,EPA ECHO CWA/NPDES facility locations,AKG371233,110028067419,DENNIS JAMESON / RESURRECTION CREEK,UNKNOWN,AK,Unknown county,Terminated,General Permit Covered Facility,NON-POTW,NA,NA,NA,NA,0,0,22.22,0.33999999999999997,NA,NA,60.866667000214584,-149.63333300035598,FALSE,FALSE
171,EPA ECHO CWA/NPDES facility locations,AKG371239,110028067419,JACK LESTER / RESURRECTION CREEK,UNKNOWN,AK,Unknown county,Terminated,General Permit Covered Facility,NON-POTW,NA,NA,NA,NA,0,0,22.22,0.33999999999999997,NA,NA,60.866667000214584,-149.63333300035598,FALSE,FALSE
172,EPA ECHO CWA/NPDES facility locations,AKG700014,110039169609,ANITA BAY SOUTH LTF,WRANGELL,AK,Wrangell-Petersburg (CA),Expired,General Permit Covered Facility,NON-POTW,NA,NA,NA,NA,0,0,0,0.14,N,Wrangell Cooperative Association - 20 mile(s),56.187800000083996,-132.450000000278,TRUE,FALSE
173,EPA ECHO CWA/NPDES facility locations,AKG700050,110039170571,SOUTH WEST NEETS BAY LTF,KETCHIKAN,AK,Ketchikan Gateway,Expired,General Permit Covered Facility,NON-POTW,NA,NA,NA,NA,0,0,0,0.1,NA,NA,55.75310000021619,-131.690000000304,FALSE,FALSE
174,EPA ECHO CWA/NPDES facility locations,AKR10H0VD,110071961227,STATTER HARBOR IMPROVEMENTS PHASE III(D) UPLAND IMPROVEMENTS,JUNEAU,AK,Juneau City and Borough,Effective,General Permit Covered Facility,NON-POTW,NA,NA,NA,NA,0,17.5,41.5,676.7700000000001,N,"Central Council of the Tlingit & Haida Indian Tribes - 11 mile(s), Douglas Indian Association - 13 mile(s)",58.384079999955496,-134.64567999987395,TRUE,FALSE
175,EPA ECHO CWA/NPDES facility locations,AKR06AE10,110070500898,CHENA MARINA RSA,FAIRBANKS,AK,Fairbanks North Star,Terminated,General Permit Covered Facility,NON-POTW,NA,NA,NA,NA,0,17.52,42.97,419.41999999999996,NA,NA,64.82011000001489,-147.90805999981197,FALSE,FALSE
176,EPA ECHO CWA/NPDES facility locations,AKR10FV11,110070618369,ELLIOTT HIGHWAY MP 0-12 REHAB 1_2,FAIRBANKS NORTH STAR CENSUS SUBARE,AK,Fairbanks North Star,Terminated,General Permit Covered Facility,NON-POTW,NA,NA,NA,NA,0,15.99,26,61.160000000000004,NA,NA,64.95925999993803,-147.61727000006098,FALSE,FALSE
177,EPA ECHO CWA/NPDES facility locations,AKR10FV17,110070618369,ELLIOTT HIGHWAY MP 0-12 REHAB 1_2,FAIRBANKS NORTH STAR CENSUS SUBARE,AK,Fairbanks North Star,Terminated,General Permit Covered Facility,NON-POTW,NA,NA,NA,NA,0,15.99,26,61.160000000000004,NA,NA,64.95925999993803,-147.61727000006098,FALSE,FALSE
178,EPA ECHO CWA/NPDES facility locations,AKR06GA41,110070626047,TRIDENT ST PAUL PROCESSING FACILITY,SAINT PAUL,AK,Aleutians West (CA),Expired,General Permit Covered Facility,NON-POTW,NA,NA,NA,NA,2,0,50,0.25,N,Saint Paul Island (See Pribilof Islands Aleut Communities of St. Paul & St. George Islands) - 1 mile(s),57.12741999996171,-170.28292000007403,TRUE,FALSE
179,EPA ECHO CWA/NPDES facility locations,AKR10H10Y,110071962151,"QUINHAGAK STREET RECONSTRUCTION, E. DOWLING ROAD TO ASKELAND DRIVE",ANCHORAGE,AK,Anchorage Municipality,Effective,General Permit Covered Facility,NON-POTW,NA,NA,NA,NA,0,23.12,50.83,3062.73,N,Knik Tribe - 21 mile(s),61.1637800001136,-149.84333000028303,TRUE,FALSE
180,EPA ECHO CWA/NPDES facility locations,AKU000313,110070111380,QUINTILLION,ANCHORAGE,AK,Anchorage Municipality,Unknown status,Unpermitted Facility,NON-POTW,NA,NA,NA,NA,0,23.38,49.220000000000006,3856.82,N,Knik Tribe - 21 mile(s),61.1700200000477,-149.880169999917,TRUE,FALSE
181,EPA ECHO CWA/NPDES facility locations,AKG520095,110070384909,S: SELDOVIA FACILITY,SELDOVIA,AK,Kenai Peninsula,Terminated,General Permit Covered Facility,NON-POTW,NA,NA,NA,NA,0,40,50,1.02,N,"Seldovia Village Tribe - 1 mile(s), Native Village of Port Graham - 8 mile(s), Native Village of Nanwalek (aka English Bay) - 10 mile(s)",59.4406469999709,-151.71879100008,TRUE,FALSE
182,EPA ECHO CWA/NPDES facility locations,AKR06GA29,110010797469,SILVER BAY SEAFOODS FALSE PASS SOUTH,FALSE PASS,AK,Aleutians East,Admin Continued,General Permit Covered Facility,NON-POTW,NA,NA,NA,NA,1,40,80,0.39,N,Native Village of False Pass - 1 mile(s),54.8650000001696,-163.411999999906,TRUE,FALSE
183,EPA ECHO CWA/NPDES facility locations,AKR06GA30,110010797469,FALSE PASS FUEL LLC,FALSE PASS,AK,Aleutians East,Admin Continued,General Permit Covered Facility,NON-POTW,NA,NA,NA,NA,1,40,80,0.39,N,Native Village of False Pass - 1 mile(s),54.8650000001696,-163.411999999906,TRUE,FALSE
184,EPA ECHO CWA/NPDES facility locations,AKNOEA108,110071525406,NIPPON CARGO AIRLINES,ANCHORAGE,AK,Anchorage Municipality,Admin Continued,General Permit Covered Facility,NON-POTW,NA,NA,NA,NA,0,21.759999999999998,41.99,3052.9700000000003,N,Knik Tribe - 22 mile(s),61.1817000001118,-149.993999999584,TRUE,FALSE
185,EPA ECHO CWA/NPDES facility locations,AKNOE0242,110071525776,CIVIL AIR PATROL 9TH COMPOSITE SQUADRON,FAIRBANKS,AK,Fairbanks North Star,Admin Continued,General Permit Covered Facility,NON-POTW,NA,NA,NA,NA,0,21.87,47.730000000000004,609.74,NA,NA,64.8122000001048,-147.845999999799,FALSE,FALSE
186,EPA ECHO CWA/NPDES facility locations,AKR10H0FP,110071661275,FAIRBANKS INTERNATIONAL AIRPORT,FAIRBANKS,AK,Fairbanks North Star,Effective,General Permit Covered Facility,NON-POTW,NA,NA,NA,NA,0,16.939999999999998,44.55,366.46999999999997,NA,NA,64.80722000010421,-147.89027400038,FALSE,FALSE
187,EPA ECHO CWA/NPDES facility locations,AKNOE0292,110071527784,CITY OF HOMER FISH GRINDER FACILITY,HOMER,AK,Kenai Peninsula,Effective,General Permit Covered Facility,NON-POTW,NA,NA,NA,NA,0,21.72,18.03,67.51,N,"Seldovia Village Tribe - 16 mile(s), Native Village of Port Graham - 23 mile(s), Native Village of Nanwalek (aka English Bay) - 25 mile(s)",59.6033000001063,-151.41400000024498,TRUE,FALSE
188,EPA ECHO CWA/NPDES facility locations,AKR06GA00,110070548472,UPPER KALSKAG OPERATIONS,KALSKAG,AK,Bethel (CA),Terminated,General Permit Covered Facility,NON-POTW,NA,NA,NA,NA,0,50,100,0.07,N,"Village of Kalskag - 2 mile(s), Village of Lower Kalskag - 4 mile(s)",61.5541670001778,-160.32416700003802,TRUE,FALSE
189,EPA ECHO CWA/NPDES facility locations,AKR10H0WZ,110071962100,DEEP CREEK SRA FACILITY REHABILITATION,NINILCHIK,AK,Kenai Peninsula,Effective,General Permit Covered Facility,NON-POTW,NA,NA,NA,NA,0,35.379999999999995,24.24,3.94,N,Ninilchik Village - 2 mile(s),60.03092599987121,-151.70316099955093,TRUE,FALSE
190,EPA ECHO CWA/NPDES facility locations,AKR06GB22,110070817416,FOOT TRAIL ROAD FACILITY,NOME,AK,Nome (CA),Terminated,General Permit Covered Facility,NON-POTW,NA,NA,NA,NA,0,15.709999999999999,72.19,7.03,N,Nome Eskimo Community - 4 mile(s),64.54722199982912,-165.405833000025,TRUE,FALSE
191,EPA ECHO CWA/NPDES facility locations,AKG380020,110071073360,ATQASUK WATER TREATMENT PLANT,ATQASUK,AK,North Slope,Effective,General Permit Covered Facility,NON-POTW,NA,NA,NA,NA,0,0,100,0.04,N,Native Village of Atqasuk - 3 mile(s),70.49693000007751,-157.43759999986398,TRUE,FALSE
192,EPA ECHO CWA/NPDES facility locations,AKR10GM38,110071177538,SEWARD HWY MP75-90 INGRAM CK TO GIRDWOOD RD PH II,GIRDWOOD,AK,Anchorage Municipality,Terminated,General Permit Covered Facility,NON-POTW,NA,NA,NA,NA,1,14.29,12.239999999999998,1.87,NA,NA,60.8604999999458,-149.02099999996,FALSE,FALSE
193,EPA ECHO CWA/NPDES facility locations,AKR10GM40,110071177538,SEWARD HIGHWAY MP 75-90 INGRAM CK TO GIRDWOOD_2,GIRDWOOD,AK,Anchorage Municipality,Terminated,General Permit Covered Facility,NON-POTW,NA,NA,NA,NA,1,14.29,12.239999999999998,1.87,NA,NA,60.8604999999458,-149.02099999996,FALSE,FALSE
194,EPA ECHO CWA/NPDES facility locations,AKG370D55,110071097784,BOYCE BUSCH CREEK MINE SITE,TALKEETNA,AK,Matanuska-Susitna,Admin Continued,General Permit Covered Facility,NON-POTW,NA,NA,NA,NA,0,45.449999999999996,9.09,0.39,NA,NA,62.473899999858,-147.76699999955397,FALSE,FALSE
195,EPA ECHO CWA/NPDES facility locations,AKR10GO43,110071095059,SAFEWAY 1832 PARKING LOT EXPANSION,HOMER,AK,Kenai Peninsula,Terminated,General Permit Covered Facility,NON-POTW,NA,NA,NA,NA,0,26.64,25.19,298.2,N,"Seldovia Village Tribe - 16 mile(s), Native Village of Port Graham - 23 mile(s), Native Village of Nanwalek (aka English Bay) - 25 mile(s)",59.6428309999902,-151.53597199996597,TRUE,FALSE
196,EPA ECHO CWA/NPDES facility locations,AKG371652,110071074694,LAJACK NOME RIVER SUCTION DREDGE,NOME,AK,Nome (CA),Terminated,General Permit Covered Facility,NON-POTW,NA,NA,NA,NA,0,13.89,71.05,1.57,N,"Native Village of Mary's Igloo - 22 mile(s), Nome Eskimo Community - 25 mile(s)",64.848100000131,-165.27999999988995,TRUE,FALSE
197,EPA ECHO CWA/NPDES facility locations,AKR06AC05,110070500225,ALASKA AIRLINES KOTZEBUE STATION,KOTZEBUE,AK,Northwest Arctic,Expired,General Permit Covered Facility,NON-POTW,NA,NA,NA,NA,1,17.12,75.44000000000001,239.6,N,Native Village of Kotzebue - 1 mile(s),66.88888900014659,-162.59333299963,TRUE,FALSE
198,EPA ECHO CWA/NPDES facility locations,AKR06GA43,110070667557,PETRO STAR FAIRBANKS RAIL AND TRUCK TERMINAL,FAIRBANKS,AK,Fairbanks North Star,Expired,General Permit Covered Facility,NON-POTW,NA,NA,NA,NA,0,25.279999999999998,44.68,1118.94,NA,NA,64.85152999993282,-147.76482500038497,FALSE,FALSE
199,EPA ECHO CWA/NPDES facility locations,AKR10GO91,110071156889,MATERIAL DISPOSAL SITE 3345 CHURCH ROAD,WASILLA,AK,Matanuska-Susitna,Admin Continued,General Permit Covered Facility,NON-POTW,NA,NA,NA,NA,0,29.18,21.34,440.94,N,"Eklutna Native Village - 13 mile(s), Knik Tribe - 14 mile(s)",61.616890000056095,-149.51161000015696,TRUE,FALSE
200,EPA ECHO CWA/NPDES facility locations,AKG380022,110071074850,POINT  LAY WATER TREATMENT PLANT,POINT LAY,AK,North Slope,Effective,General Permit Covered Facility,NON-POTW,NA,NA,NA,NA,0,50,100,0.08,N,Native Village of Point Lay - 3 mile(s),69.7291999999519,-163.00599999956597,TRUE,FALSE
201,EPA ECHO CWA/NPDES facility locations,AKG870018,110071064538,KODIAK SOIL AND WATER CONSERVATION DISTRICT PESTICIDE,KODIAK,AK,Kodiak Island,Expired,General Permit Covered Facility,NON-POTW,NA,NA,NA,NA,0,24.22,54.339999999999996,89.64999999999999,N,"Sun'aq Tribe of Kodiak - 4 mile(s), Tangirnaq Native Village - 5 mile(s), Native Village of Ouzinkie - 12 mile(s), Native Village of Port Lions - 16 mile(s), Native Village of Afognak - 20 mile(s)",57.76430000008801,-152.502999999581,TRUE,FALSE
202,EPA ECHO CWA/NPDES facility locations,AKR06H00P,110070877306,"DUTCH HARBOR, SATELLITE YARD #2",UNALASKA,AK,Aleutians West (CA),Terminated,General Permit Covered Facility,NON-POTW,NA,NA,NA,NA,0,22.86,78.57,4.81,N,Qawalangin Tribe of Unalaska - 2 mile(s),53.87830000013171,-166.55939999970198,TRUE,FALSE
203,EPA ECHO CWA/NPDES facility locations,AKR10H0D0,110070916915,"MID ALASKA PIPELINE, PETROSTAR REFINERY PIPELINES",FAIRBANKS,AK,Fairbanks North Star,Terminated,General Permit Covered Facility,NON-POTW,NA,NA,NA,NA,0,28.57,43.87,801.3299999999999,NA,NA,64.81716099994352,-147.71320200014395,FALSE,FALSE
204,EPA ECHO CWA/NPDES facility locations,AKR10GK99,110071220986,COS MEMORIAL PARK PHASE II_2,SOLDOTNA,AK,Kenai Peninsula,Terminated,General Permit Covered Facility,NON-POTW,NA,NA,NA,NA,0,25.41,24.84,285.72999999999996,N,"Kenaitze Indian Tribe - 7 mile(s), Salamatof Tribe - 11 mile(s)",60.4877799998547,-151.10766000033098,TRUE,FALSE
205,EPA ECHO CWA/NPDES facility locations,AKG332055,110070740900,ACCUMULATE ENERGY ALASKA (AEA) FRANKIN BLUFFS PAD TEMPORARY STORAGE CELL,PRUDHOE BAY,AK,North Slope,Terminated,General Permit Covered Facility,NON-POTW,NA,NA,NA,NA,0,5.56,22.22,0.77,NA,NA,69.71692899987012,-148.70585400036896,FALSE,FALSE
206,EPA ECHO CWA/NPDES facility locations,AKR06AF44,110071077564,PETRO STAR INC POA TERMINAL,ANCHORAGE,AK,Anchorage Municipality,Expired,General Permit Covered Facility,NON-POTW,NA,NA,NA,NA,0,35.48,53.379999999999995,2080.77,N,"Knik Tribe - 17 mile(s), Eklutna Native Village - 24 mile(s)",61.23421999990101,-149.88793000037904,TRUE,FALSE
207,EPA ECHO CWA/NPDES facility locations,AKR06AB21,110070503111,KENAI FACILITY,NIKISKI,AK,Kenai Peninsula,Expired,General Permit Covered Facility,NON-POTW,NA,NA,NA,NA,0,39.58,25.279999999999998,71.74000000000001,N,"Salamatof Tribe - 10 mile(s), Kenaitze Indian Tribe - 13 mile(s), Native Village of Tyonek - 25 mile(s)",60.72600000005091,-151.32099999974,TRUE,FALSE
208,EPA ECHO CWA/NPDES facility locations,AKR10FM69,110071094309,"RICHPORT SUBDIVISION, TRACT 1",ANCHORAGE,AK,Anchorage Municipality,Admin Continued,General Permit Covered Facility,NON-POTW,NA,NA,NA,NA,0,20.27,44.01,2568.04,N,Knik Tribe - 24 mile(s),61.12419999996591,-149.838000000157,TRUE,FALSE
209,EPA ECHO CWA/NPDES facility locations,AKR10H01Z,110071309601,COAL CREEK ROAD RESTORATION PROJECT NO. 52959-4,HEALY,AK,Unknown county,Terminated,General Permit Covered Facility,NON-POTW,NA,NA,NA,NA,0,20,20,0.18,NA,NA,63.897599999869,-148.68500000001902,FALSE,FALSE
210,EPA ECHO CWA/NPDES facility locations,AKR10GP73,110071251956,MEADOW LANE IMPROVEMENTS_2,JUNEAU,AK,Juneau City and Borough,Terminated,General Permit Covered Facility,NON-POTW,NA,NA,NA,NA,1,20.279999999999998,44.47,696.53,N,"Central Council of the Tlingit & Haida Indian Tribes - 9 mile(s), Douglas Indian Association - 11 mile(s)",58.366750000071605,-134.59923000029903,TRUE,FALSE
211,EPA ECHO CWA/NPDES facility locations,AKR10GP82,110071252523,LFS CAPTAINS BAY,UNALASKA,AK,Aleutians West (CA),Terminated,General Permit Covered Facility,NON-POTW,NA,NA,NA,NA,0,20,78.69,4.39,N,Qawalangin Tribe of Unalaska - 4 mile(s),53.835000000159305,-166.58399999993998,TRUE,FALSE
212,EPA ECHO CWA/NPDES facility locations,AKR10GM54,110071223680,HOLIDAY INN EXPRESS AND CANDLEWOOD SUITES,ANCHORAGE,AK,Anchorage Municipality,Terminated,General Permit Covered Facility,NON-POTW,NA,NA,NA,NA,1,23.6,49.53,3816.84,N,Knik Tribe - 21 mile(s),61.177229999862796,-149.88404300002603,TRUE,FALSE
213,EPA ECHO CWA/NPDES facility locations,AKG870005,110070875159,JBER MOSQUITO,JOINT BASE ELMENDORF RICHARDSON,AK,Anchorage Municipality,Admin Continued,General Permit Covered Facility,NON-POTW,NA,NA,NA,NA,0,40.01,62.94,2391.12,N,"Knik Tribe - 16 mile(s), Eklutna Native Village - 22 mile(s)",61.23694099990411,-149.83051599987897,TRUE,FALSE
214,EPA ECHO CWA/NPDES facility locations,AKR05DB04,110054100487,BETHEL BULK PETROLEUM STORAGE TERMINAL,BETHEL,AK,Bethel (CA),Terminated,General Permit Covered Facility,NON-POTW,NA,NA,NA,NA,0,35.99,87.44000000000001,19.04,N,"Orutsararmiut Traditional Native Council - 3 mile(s), Oscarville Traditional Village - 6 mile(s), Native Village of Napaskiak - 7 mile(s), Organized Village of Kwethluk - 9 mile(s), Native Village of Napakiak - 12 mile(s), Akiachak Native Community - 12 mile(s), Akiak Native Community - 18 mile(s)",60.78817199996531,-161.680000000391,TRUE,FALSE
215,EPA ECHO CWA/NPDES facility locations,AKR06H01M,110054100487,BETHEL SOUTH TANK FARM BULK PETROLEUM STORAGE TERMINAL,BETHEL,AK,Bethel (CA),Admin Continued,General Permit Covered Facility,NON-POTW,NA,NA,NA,NA,0,35.99,87.44000000000001,19.04,N,"Orutsararmiut Traditional Native Council - 3 mile(s), Oscarville Traditional Village - 6 mile(s), Native Village of Napaskiak - 7 mile(s), Organized Village of Kwethluk - 9 mile(s), Native Village of Napakiak - 12 mile(s), Akiachak Native Community - 12 mile(s), Akiak Native Community - 18 mile(s)",60.78817199996531,-161.680000000391,TRUE,FALSE
216,EPA ECHO CWA/NPDES facility locations,AKU000373,110054100487,BETHEL BULK PETROLEUM STORAGE TERMINAL,BETHEL,AK,Unknown county,Unknown status,Unpermitted Facility,NON-POTW,NA,NA,NA,NA,0,35.99,87.44000000000001,19.04,N,"Orutsararmiut Traditional Native Council - 3 mile(s), Oscarville Traditional Village - 6 mile(s), Native Village of Napaskiak - 7 mile(s), Organized Village of Kwethluk - 9 mile(s), Native Village of Napakiak - 12 mile(s), Akiachak Native Community - 12 mile(s), Akiak Native Community - 18 mile(s)",60.78817199996531,-161.680000000391,TRUE,FALSE
217,EPA ECHO CWA/NPDES facility locations,AKR10H037,110071320754,PAVEMENT MANAGEMENT PHASE II - WHALEN AVENUE PROJECT NUMBER: 20-310-1200,VALDEZ,AK,Valdez-Cordova (CA),Terminated,General Permit Covered Facility,NON-POTW,NA,NA,NA,NA,0,12.350000000000001,34.339999999999996,34.720000000000006,N,Native Village of Tatitlek - 22 mile(s),61.13239999997851,-146.37836000040903,TRUE,FALSE
218,EPA ECHO CWA/NPDES facility locations,AKR10H03L,110071320754,PAVEMENT MANAGEMENT PHASE II - WHALEN AVENUE PROJECT NUMBER: 20-310-1200,VALDEZ,AK,Valdez-Cordova (CA),Terminated,General Permit Covered Facility,NON-POTW,NA,NA,NA,NA,0,12.350000000000001,34.339999999999996,34.720000000000006,N,Native Village of Tatitlek - 22 mile(s),61.13239999997851,-146.37836000040903,TRUE,FALSE
219,EPA ECHO CWA/NPDES facility locations,AKR06AE02,110028073279,LOOKOUT COVE LTF,PORT LIONS,AK,Kodiak Island,Terminated,General Permit Covered Facility,NON-POTW,NA,NA,NA,NA,0,33.33,66.66999999999999,0.27,N,"Native Village of Afognak - 14 mile(s), Native Village of Ouzinkie - 19 mile(s), Native Village of Port Lions - 25 mile(s)",58.1832999999494,-152.56700000038302,TRUE,FALSE
220,EPA ECHO CWA/NPDES facility locations,AKR10H07G,110071409992,HEALY SPUR ROAD REHABILITATION,HEALY,AK,Denali,Terminated,General Permit Covered Facility,NON-POTW,NA,NA,NA,NA,0,20,20,0.18,NA,NA,63.869569999824705,-149.01992999955695,FALSE,FALSE
221,EPA ECHO CWA/NPDES facility locations,AKR10H07L,110071409992,HEALY SPUR ROAD REHABILITATION,HEALY,AK,Denali,Terminated,General Permit Covered Facility,NON-POTW,NA,NA,NA,NA,0,20,20,0.18,NA,NA,63.869569999824705,-149.01992999955695,FALSE,FALSE
222,EPA ECHO CWA/NPDES facility locations,AKR10H07N,110071410314,MTA FTTX WOODFIELD EST,WASILLA,AK,Matanuska-Susitna,Terminated,General Permit Covered Facility,NON-POTW,NA,NA,NA,NA,0,20.79,22.35,686.88,N,"Eklutna Native Village - 12 mile(s), Knik Tribe - 17 mile(s)",61.6170799998244,-149.337860000385,TRUE,FALSE
223,EPA ECHO CWA/NPDES facility locations,AKR10GQ38,110071278644,CENTERPOINT SUBDIVISION,EAGLE RIVER,AK,Anchorage Municipality,Terminated,General Permit Covered Facility,NON-POTW,NA,NA,NA,NA,0,11.08,24.22,852.5,N,"Knik Tribe - 11 mile(s), Eklutna Native Village - 12 mile(s)",61.331600000090795,-149.57399999988195,TRUE,FALSE
224,EPA ECHO CWA/NPDES facility locations,AKG370D7F,110071439431,SNEED LITTLE WILLOW CREEK MINE SITE,TRAPPER CREEK,AK,Matanuska-Susitna,Admin Continued,General Permit Covered Facility,NON-POTW,NA,NA,NA,NA,0,0,0,0.07,NA,NA,62.5684310002004,-150.84356899981995,FALSE,FALSE
225,EPA ECHO CWA/NPDES facility locations,AKR10H0C1,110071444144,SKAGWAY SOLID WASTE TRANSFER FACILITY,SKAGWAY,AK,Skagway-Hoonah-Angoon (CA),Terminated,General Permit Covered Facility,NON-POTW,NA,NA,NA,NA,1,18.07,31.330000000000002,3.01,N,"Skagway Village - 2 mile(s), Chilkoot Indian Association (Haines) - 18 mile(s), Chilkat Indian Village (Klukwan) - 22 mile(s)",59.4764719997771,-135.29370700023,TRUE,FALSE
226,EPA ECHO CWA/NPDES facility locations,AKR10H0AL,110071439014,LORE AND HARTZELL - NORTH,ANCHORAGE,AK,Anchorage Municipality,Effective,General Permit Covered Facility,NON-POTW,NA,NA,NA,NA,0,20.84,49.260000000000005,2803.7,N,Knik Tribe - 22 mile(s),61.1517500001601,-149.84969999977696,TRUE,FALSE
227,EPA ECHO CWA/NPDES facility locations,AKR10H0MJ,110071813941,REPAIR PAVE ROADS ASP C,JBER,AK,Anchorage Municipality,Terminated,General Permit Covered Facility,NON-POTW,NA,NA,NA,NA,0,33.68,57.290000000000006,376.8,N,"Knik Tribe - 14 mile(s), Eklutna Native Village - 19 mile(s)",61.2649499997978,-149.74591900044197,TRUE,FALSE
228,EPA ECHO CWA/NPDES facility locations,AKR10H0N3,110071817136,HIDDEN HILLS/CASWELL LAKES ROAD IMPROVEMENTS,WILLOW,AK,Matanuska-Susitna,Terminated,General Permit Covered Facility,NON-POTW,NA,NA,NA,NA,0,45.449999999999996,8.33,0.43000000000000005,NA,NA,61.989299999957396,-150.038439999846,FALSE,FALSE
229,EPA ECHO CWA/NPDES facility locations,AKG371694,110071821827,GARIFULLIN NORTON SOUND MEDIUM SUCTION DREDGE,NOME,AK,Nome (CA),Admin Continued,General Permit Covered Facility,NON-POTW,NA,NA,NA,NA,0,26.91,76.29,99.76,N,Nome Eskimo Community - 3 mile(s),64.4773000000744,-165.36750000038901,TRUE,FALSE
230,EPA ECHO CWA/NPDES facility locations,AKR10H0Q3,110071863162,WHITTIER HEAD OF THE BAY E2214130,WHITTIER,AK,Valdez-Cordova (CA),Terminated,General Permit Covered Facility,NON-POTW,NA,NA,NA,NA,0,16,12,1.3800000000000001,NA,NA,60.7777200000206,-148.724710000204,FALSE,FALSE
231,EPA ECHO CWA/NPDES facility locations,AKR10H0PD,110071825930,BROOKSIDE PARK ROADWAY PAVING AND PATH SURFACING,NORTH POLE,AK,Fairbanks North Star,Terminated,General Permit Covered Facility,NON-POTW,NA,NA,NA,NA,0,11.06,26.310000000000002,358.62,NA,NA,64.73782000011252,-147.32792899993203,FALSE,FALSE
232,EPA ECHO CWA/NPDES facility locations,AKG370098,110010114278,OTT OMEGA CREEK MINE SITE,MANLEY HOT SPRINGS,AK,Yukon-Koyukuk (CA),Admin Continued,General Permit Covered Facility,NON-POTW,NA,NA,NA,NA,1,33.33,33.33,0.11,N,"Manley Hot Springs Village - 16 mile(s), Rampart Village - 23 mile(s)",65.1829899999988,-150.320741999937,TRUE,FALSE
233,EPA ECHO CWA/NPDES facility locations,AKR10H0B6,110071444710,KENAI LAKE WORK CENTER: WATER AND WASTEWATER SYSTEM IMPROVEMENTS,SEWARD,AK,Kenai Peninsula,Terminated,General Permit Covered Facility,NON-POTW,NA,NA,NA,NA,0,0,22.22,0.33999999999999997,NA,NA,60.4067170002,-149.37173499993,FALSE,FALSE
234,EPA ECHO CWA/NPDES facility locations,AKR10H0BG,110071444710,KENAI LAKE WORK CENTER: WATER AND WASTEWATER SYSTEM IMPROVEMENTS,SEWARD,AK,Kenai Peninsula,Terminated,General Permit Covered Facility,NON-POTW,NA,NA,NA,NA,0,0,22.22,0.33999999999999997,NA,NA,60.4067170002,-149.37173499993,FALSE,FALSE
235,EPA ECHO CWA/NPDES facility locations,AKR10H0FZ,110071669315,EIE424 REPAIR GARRISON SLOUGH RAILROAD TRESTLE BRIDGE,EIELSON AFB,AK,Fairbanks North Star,Terminated,General Permit Covered Facility,NON-POTW,NA,NA,NA,NA,0,19.02,26.21,29.650000000000002,NA,NA,64.70100999984332,-147.119230000013,FALSE,FALSE
236,EPA ECHO CWA/NPDES facility locations,AKR10GK13,110071204240,2 SANDHILL RESERVE _2,ANCHORAGE,AK,Anchorage Municipality,Terminated,General Permit Covered Facility,NON-POTW,NA,NA,NA,NA,0,16.04,43.04,3001.34,N,Knik Tribe - 23 mile(s),61.1487000000164,-149.98000000022304,TRUE,FALSE
237,EPA ECHO CWA/NPDES facility locations,AKR10GN17,110071238072,ILLINOIS ST. AND COLLEGE RD. SIGNAL INTERCONNECT_2,FAIRBANKS,AK,Fairbanks North Star,Terminated,General Permit Covered Facility,NON-POTW,NA,NA,NA,NA,0,22.59,44.53,936.5,NA,NA,64.85471999997321,-147.811940000306,FALSE,FALSE
238,EPA ECHO CWA/NPDES facility locations,AKR10GK23,110071221141,OLD HARBOR WATER SERVICE LINES,OLD HARBOR,AK,Kodiak Island,Terminated,General Permit Covered Facility,NON-POTW,NA,NA,NA,NA,0,50,50,0.12000000000000001,N,Alutiiq Tribe of Old Harbor - 1 mile(s),57.202199999917504,-153.306999999601,TRUE,FALSE
239,EPA ECHO CWA/NPDES facility locations,AKR10GK69,110071220912,SPENARD EAST HOUSING DEVELOPMENT PHASE I_2,ANCHORAGE,AK,Anchorage Municipality,Terminated,General Permit Covered Facility,NON-POTW,NA,NA,NA,NA,0,23.39,46.309999999999995,3751.02,N,Knik Tribe - 20 mile(s),61.1875000001696,-149.907500000066,TRUE,FALSE
240,EPA ECHO CWA/NPDES facility locations,AKR10GP05,110071204384,LOT 35 SANDHILL RESERVE,ANCHORAGE,AK,Anchorage Municipality,Terminated,General Permit Covered Facility,NON-POTW,NA,NA,NA,NA,0,15.719999999999999,43.47,2801.66,N,Knik Tribe - 24 mile(s),61.1434999998359,-149.98000000022304,TRUE,FALSE
241,EPA ECHO CWA/NPDES facility locations,AKR10GM11,110071221935,NEWTOK AIRPORT RELOCATION CFAPT00310,NEWTOK,AK,Bethel (CA),Terminated,General Permit Covered Facility,NON-POTW,NA,NA,NA,NA,1,60,100,0.59,N,Newtok Village - 1 mile(s),60.9359800000343,-164.64035999980896,TRUE,FALSE
242,EPA ECHO CWA/NPDES facility locations,AKR10GM20,110071221935,NEWTOK AIRPORT RELOCATION _2,NEWTOK,AK,Bethel (CA),Terminated,General Permit Covered Facility,NON-POTW,NA,NA,NA,NA,1,60,100,0.59,N,Newtok Village - 1 mile(s),60.9359800000343,-164.64035999980896,TRUE,FALSE
243,EPA ECHO CWA/NPDES facility locations,AKR10GO10,110071235500,36TH AVENUE RESURFACING PHASE I_2,ANCHORAGE,AK,Anchorage Municipality,Terminated,General Permit Covered Facility,NON-POTW,NA,NA,NA,NA,0,26.4,51.65,3758.12,N,Knik Tribe - 20 mile(s),61.188099999915906,-149.867999999943,TRUE,FALSE
244,EPA ECHO CWA/NPDES facility locations,AKR10GL84,110071221047,W. SILVER DR. - N. SASBO BLUFF LP. UPGRADES_2,WASILLA,AK,Matanuska-Susitna,Terminated,General Permit Covered Facility,NON-POTW,NA,NA,NA,NA,0,23.310000000000002,16.17,133.22,N,"Knik Tribe - 14 mile(s), Eklutna Native Village - 16 mile(s)",61.6398180001974,-149.628372000301,TRUE,FALSE
245,EPA ECHO CWA/NPDES facility locations,AKR10H0ST,110071945631,WHITSHED ROAD & PEDESTRAIN IMPROVEMENTS CORDOVA ROSE LODGE DEMOLITION,CORDOVA,AK,Valdez-Cordova (CA),Terminated,General Permit Covered Facility,NON-POTW,NA,NA,NA,NA,0,27.08,34.839999999999996,17.77,N,Native Village of Eyak (Cordova) - 3 mile(s),60.537259999902595,-145.76326000029198,TRUE,FALSE
246,EPA ECHO CWA/NPDES facility locations,AKR10H0Y9,110071996922,YANKOVICH/MILLER HILL ROAD RECONSTRUCTION AND MULTI-USE PATH,FAIRBANKS,AK,Fairbanks North Star,Effective,General Permit Covered Facility,NON-POTW,NA,NA,NA,NA,0,20.310000000000002,41.74,328.28999999999996,NA,NA,64.8776999999537,-147.88070000042404,FALSE,FALSE
247,EPA ECHO CWA/NPDES facility locations,AKR10H0QF,110071894928,CORNERROCK SNOW DUMP,ANCHORAGE,AK,Anchorage Municipality,Terminated,General Permit Covered Facility,NON-POTW,NA,NA,NA,NA,0,21.06,51.349999999999994,1194.49,N,"Knik Tribe - 20 mile(s), Eklutna Native Village - 24 mile(s)",61.1710510000811,-149.71794999988498,TRUE,FALSE
248,EPA ECHO CWA/NPDES facility locations,AKU000019,110009038013,AMERADA HESS CORPORATION,WASILLA,AK,Unknown county,Unknown status,Unpermitted Facility,NON-POTW,NA,NA,NA,NA,0,18.779999999999998,26.14,430.18,N,"Eklutna Native Village - 8 mile(s), Knik Tribe - 8 mile(s)",61.5200699998093,-149.53094999969002,TRUE,FALSE
249,EPA ECHO CWA/NPDES facility locations,AKR06AC48,110044937281,PETERSBURG BULK PLANT,PETERSBURG,AK,Petersburg Census Area,Expired,General Permit Covered Facility,NON-POTW,NA,NA,NA,NA,0,22.49,41.43,134.87,N,Petersburg Indian Association - 3 mile(s),56.8073160000045,-132.968328999888,TRUE,FALSE
250,EPA ECHO CWA/NPDES facility locations,AKU000275,110044937281,PETRO MARINE SERVICES - PETERSBURG FACILITY,PETERSBURG,AK,Unknown county,Unknown status,Unpermitted Facility,NON-POTW,NA,NA,NA,NA,0,22.49,41.43,134.87,N,Petersburg Indian Association - 3 mile(s),56.8073160000045,-132.968328999888,TRUE,FALSE
251,EPA ECHO CWA/NPDES facility locations,AKG370A34,110063602365,MILLER GOLDBOTTOM  CREEK MINE SITE,NOME,AK,Unknown county,Terminated,General Permit Covered Facility,NON-POTW,NA,NA,NA,NA,0,10.42,68.63,2.06,N,Nome Eskimo Community - 18 mile(s),64.7583399999206,-165.45203999992503,TRUE,FALSE
252,EPA ECHO CWA/NPDES facility locations,AKG375006,110012683952,RAYMOND G ACCOLA & FAMILY / WASHINGTON CREEK,UNKNOWN,AK,Fairbanks North Star,Terminated,General Permit Covered Facility,NON-POTW,NA,NA,NA,NA,0,15.450000000000001,28.85,212.70999999999998,NA,NA,64.9091870001282,-147.62118199963,FALSE,FALSE
253,EPA ECHO CWA/NPDES facility locations,AKG375007,110012683952,RAYMOND G ACCOLA & FAMILY / GLOBE CREEK,UNKNOWN,AK,Fairbanks North Star,Terminated,General Permit Covered Facility,NON-POTW,NA,NA,NA,NA,0,15.450000000000001,28.85,212.70999999999998,NA,NA,64.9091870001282,-147.62118199963,FALSE,FALSE
254,EPA ECHO CWA/NPDES facility locations,AKG375009,110012683952,RAYMOND G ACCOLA & FAMILY / STEESE HIGHWAY,UNKNOWN,AK,Fairbanks North Star,Terminated,General Permit Covered Facility,NON-POTW,NA,NA,NA,NA,0,15.450000000000001,28.85,212.70999999999998,NA,NA,64.9091870001282,-147.62118199963,FALSE,FALSE
255,EPA ECHO CWA/NPDES facility locations,AKG375011,110012683952,RAYMOND G ACCOLA & FAMILY / NOME CREEK,UNKNOWN,AK,Fairbanks North Star,Terminated,General Permit Covered Facility,NON-POTW,NA,NA,NA,NA,0,15.450000000000001,28.85,212.70999999999998,NA,NA,64.9091870001282,-147.62118199963,FALSE,FALSE
256,EPA ECHO CWA/NPDES facility locations,AKG520525,110006794807,PACIFIC SUN PRODUCTS LLC - KETCHIKAN FACILITY,KETCHIKAN,AK,Ketchikan Gateway,Terminated,General Permit Covered Facility,NON-POTW,NA,NA,NA,NA,0,26.88,48.21,343.19,N,"Ketchikan Indian Community - 1 mile(s), Organized Village of Saxman - 3 mile(s), Metlakatla Indian Community, Annette Island Reserve - 4 mile(s), Organized Village of Kasaan - 24 mile(s)",55.3391379998735,-131.636596000181,TRUE,FALSE
257,EPA ECHO CWA/NPDES facility locations,AKR05CE47,110041250179,ACE FUELS MERRILL SKI STRIP,ANCHORAGE,AK,Anchorage Municipality,Terminated,General Permit Covered Facility,NON-POTW,NA,NA,NA,NA,0,32.760000000000005,57.87,3581.3500000000004,N,"Knik Tribe - 18 mile(s), Eklutna Native Village - 24 mile(s)",61.21402999988259,-149.831839999827,TRUE,FALSE
258,EPA ECHO CWA/NPDES facility locations,AKG370B29,110064415752,KIRKWOOD YACKO CREEK MINE SITE,GLENALLEN,AK,Unknown county,Terminated,General Permit Covered Facility,NON-POTW,NA,NA,NA,NA,0,40,20,0.18,NA,NA,61.9377780000455,-147.167499999829,FALSE,FALSE
259,EPA ECHO CWA/NPDES facility locations,AKG370B46,110064414236,45 PUP GOLD CO. INGLE CREEK MINE SITE,CHICKEN,AK,Unknown county,Terminated,General Permit Covered Facility,NON-POTW,NA,NA,NA,NA,0,100,100,0.04,NA,NA,64.0927899998858,-142.028859999559,FALSE,FALSE
260,EPA ECHO CWA/NPDES facility locations,AKG370B47,110064414245,ALASKA LOG WORKS BUCKSKIN CREEK MINE SITE,CHICKEN,AK,Unknown county,Terminated,General Permit Covered Facility,NON-POTW,NA,NA,NA,NA,0,100,100,0.04,NA,NA,64.1929999999853,-141.99900000041302,FALSE,FALSE
261,EPA ECHO CWA/NPDES facility locations,AKR10H103,110072107829,MUKLUK RECONNECT 2 - NOME TO TELLER,NOME,AK,Nome (CA),Effective,General Permit Covered Facility,NON-POTW,NA,NA,NA,NA,0,18.52,73.33,2.9299999999999997,N,Nome Eskimo Community - 6 mile(s),64.5640060000005,-165.51019800041402,TRUE,FALSE
262,EPA ECHO CWA/NPDES facility locations,AKU000182,110020127405,NORTHERN HARBOR ESTATES,ANCHORAGE,AK,Anchorage Municipality,Unknown status,Unpermitted Facility,NON-POTW,NA,NA,NA,NA,0,23.650000000000002,52.17,3314.9900000000002,N,Knik Tribe - 21 mile(s),61.1736199998144,-149.838109999762,TRUE,FALSE
263,EPA ECHO CWA/NPDES facility locations,AKU000183,110020127405,TONY'S INTERIORS INC,ANCHORAGE,AK,Anchorage Municipality,Unknown status,Unpermitted Facility,NON-POTW,NA,NA,NA,NA,0,23.650000000000002,52.17,3314.9900000000002,N,Knik Tribe - 21 mile(s),61.1736199998144,-149.838109999762,TRUE,FALSE
264,EPA ECHO CWA/NPDES facility locations,AKR10BB90,110022909450,SNOW RAVEN VILLAGE,GIRDWOOD,AK,Anchorage Municipality,Terminated,General Permit Covered Facility,NON-POTW,NA,NA,NA,NA,0,4.930000000000001,3.75,21.72,NA,NA,60.9654099998115,-149.13099000002902,FALSE,FALSE
265,EPA ECHO CWA/NPDES facility locations,AKU000207,110022909450,SNOW RAVEN VILLAGE,GIRDWOOD,AK,Anchorage Municipality,Unknown status,Unpermitted Facility,NON-POTW,NA,NA,NA,NA,0,4.930000000000001,3.75,21.72,NA,NA,60.9654099998115,-149.13099000002902,FALSE,FALSE
266,EPA ECHO CWA/NPDES facility locations,AKR10H03R,110046491854,SOUTH CAMPUS LAYDOWN YARD,ANCHORAGE,AK,Unknown county,Terminated,General Permit Covered Facility,NON-POTW,NA,NA,NA,NA,0,22.45,48.15,3855.3700000000003,N,Knik Tribe - 21 mile(s),61.16881200009931,-149.91100599975397,TRUE,FALSE
267,EPA ECHO CWA/NPDES facility locations,AKR10H03S,110046491854,SOUTH CAMPUS LAYDOWN YARD,ANCHORAGE,AK,Unknown county,Terminated,General Permit Covered Facility,NON-POTW,NA,NA,NA,NA,0,22.45,48.15,3855.3700000000003,N,Knik Tribe - 21 mile(s),61.16881200009931,-149.91100599975397,TRUE,FALSE
268,EPA ECHO CWA/NPDES facility locations,AKU000319,110070133627,WATERSEDGE LODGE,ELFIN COVE,AK,Hoonah-Angoon Census Area,Unknown status,Unpermitted Facility,NON-POTW,NA,NA,NA,NA,0,25,25,0.2,NA,NA,58.194720000012595,-136.34579999998599,FALSE,FALSE
269,EPA ECHO CWA/NPDES facility locations,AKG570038,110000908395,ALYESKA PIPELINE SERVICE COMPANY,PRUDHOE BAY,AK,North Slope,Terminated,General Permit Covered Facility,NON-POTW,0.012,0.0064,NA,NA,0,NA,NA,0,NA,NA,68.42166600013431,-149.358636999844,FALSE,FALSE
270,EPA ECHO CWA/NPDES facility locations,AKG370049,110028065322,CARL RAY SMITH / BAILEY CREEK,UNKNOWN,AK,Southeast Fairbanks (CA),Terminated,General Permit Covered Facility,NON-POTW,NA,NA,NA,NA,0,100,100,0.04,NA,NA,64.11000000005689,-141.560000000038,FALSE,FALSE
271,EPA ECHO CWA/NPDES facility locations,AKG370602,110028066143,JESSE JAMES BROOKS JR / UNNAMED DRAINAGE TO SOUTH FORK 40 MILE,UNKNOWN,AK,Southeast Fairbanks (CA),Terminated,General Permit Covered Facility,NON-POTW,NA,NA,NA,NA,0,100,100,0.04,NA,NA,64.0300000000478,-141.72999999972498,FALSE,FALSE
272,EPA ECHO CWA/NPDES facility locations,AKR05CD53,110000608502,ALASKA RAILROAD CORP,ANCHORAGE,AK,Anchorage Municipality,Terminated,General Permit Covered Facility,NON-POTW,NA,NA,NA,NA,0,34.620000000000005,53.21,2988,N,"Knik Tribe - 18 mile(s), Eklutna Native Village - 24 mile(s)",61.22235999992611,-149.888250000046,TRUE,FALSE
273,EPA ECHO CWA/NPDES facility locations,AKU000174,110020059871,COURTNEY SERVICES - CHURCH ON THE ROCK,WASILLA,AK,Matanuska-Susitna,Unknown status,Unpermitted Facility,NON-POTW,NA,NA,NA,NA,0,29.3,23.57,532.25,N,"Knik Tribe - 11 mile(s), Eklutna Native Village - 11 mile(s)",61.58444900005549,-149.54149600014,TRUE,FALSE
274,EPA ECHO CWA/NPDES facility locations,AKG370D7P,110071515323,GRAFF DEADWOOD CREEK MINE SITE,MANLEY HOT SPRINGS,AK,Yukon-Koyukuk (CA),Admin Continued,General Permit Covered Facility,NON-POTW,NA,NA,NA,NA,0,0,100,0.04,N,"Rampart Village - 21 mile(s), Manley Hot Springs Village - 23 mile(s), Native Village of Minto - 23 mile(s)",65.2190000000562,-150.07010000003902,TRUE,FALSE
275,EPA ECHO CWA/NPDES facility locations,AKG002304,110071502564,ALYESKA - TAPS - FGLMP 5-10 MAG RIBBON REPAIR,DEADHORSE,AK,North Slope,Terminated,General Permit Covered Facility,NON-POTW,NA,NA,NA,NA,0,8.7,21.74,1.03,NA,NA,70.17791399999712,-148.64576900040797,FALSE,FALSE
276,EPA ECHO CWA/NPDES facility locations,AKG520518,110009691351,FISH WASTE GRINDING AND DISPOSAL FACILITY,HOMER,AK,Kenai Peninsula,Terminated,General Permit Covered Facility,NON-POTW,NA,NA,NA,NA,0,21.71,18.06,64.13,N,"Seldovia Village Tribe - 16 mile(s), Native Village of Port Graham - 23 mile(s), Native Village of Nanwalek (aka English Bay) - 25 mile(s)",59.6008599998494,-151.418409999756,TRUE,FALSE
277,EPA ECHO CWA/NPDES facility locations,AKU000237,110050458210,"SEWARD, CITY OF",SEWARD,AK,Kenai Peninsula,Unknown status,Unpermitted Facility,NON-POTW,NA,NA,NA,NA,0,18.66,28.12,105.6,NA,NA,60.1168100000763,-149.44017000035697,FALSE,FALSE
278,EPA ECHO CWA/NPDES facility locations,AKG370D7R,110071505849,ADAMS SLATE CREEK MINE SITE,RAMPART,AK,Yukon-Koyukuk (CA),Admin Continued,General Permit Covered Facility,NON-POTW,NA,NA,NA,NA,0,0,100,0.04,N,Rampart Village - 11 mile(s),65.35911999987961,-150.19032000019,TRUE,FALSE
279,EPA ECHO CWA/NPDES facility locations,AKG571023,110045700620,SHISHMAREF SCHOOL WW TREATMENT PLANT,SHISHMAREF,AK,Nome (CA),Terminated,General Permit Covered Facility,NON-POTW,NA,0.17,NA,NA,0,66.66999999999999,100,0.26,N,Native Village of Shishmaref - 1 mile(s),66.25562699994381,-166.072598000215,TRUE,FALSE
280,EPA ECHO CWA/NPDES facility locations,AKG573034,110045700620,SHISHMAREF SCHOOL WW TREATMENT PLANT,SHISHMAREF,AK,Nome (CA),Effective,General Permit Covered Facility,POTW,NA,NA,NA,NA,0,66.66999999999999,100,0.26,N,Native Village of Shishmaref - 1 mile(s),66.25562699994381,-166.072598000215,TRUE,FALSE
281,EPA ECHO CWA/NPDES facility locations,AKR06AC38,110070519614,RAVN-ANIAK AIRPORT,ANIAK,AK,Bethel (CA),Terminated,General Permit Covered Facility,NON-POTW,NA,NA,NA,NA,0,50,100,0.07,N,"Village of Aniak - 1 mile(s), Native Village of Chuathbaluk (Russian Mission, Kuskokwim) - 10 mile(s)",61.574160000076,-159.534359999723,TRUE,FALSE
282,EPA ECHO CWA/NPDES facility locations,AKR06AD29,110070519200,BROWN ANCHOR POINT MATERIAL SITE,ANCHOR POINT,AK,Kenai Peninsula,Terminated,General Permit Covered Facility,NON-POTW,NA,NA,NA,NA,0,33.839999999999996,15.08,20.1,N,"Ninilchik Village - 21 mile(s), Seldovia Village Tribe - 23 mile(s)",59.760159999833206,-151.78586999987397,TRUE,FALSE
283,EPA ECHO CWA/NPDES facility locations,AKG523085,110070517800,GOLDEN HARVEST ALASKA INLAND WATER DISCHARGE VESSELS,ADAK,AK,Aleutians West (CA),Terminated,General Permit Covered Facility,NON-POTW,NA,NA,NA,NA,0,0,50,0.25,NA,NA,51.879224999914896,-176.569433999672,FALSE,FALSE
284,EPA ECHO CWA/NPDES facility locations,AKG523086,110070517800,GOLDEN HARVEST ALASKA INLAND WATER DISCHARGE VESSELS,ADAK,AK,Aleutians West (CA),Terminated,General Permit Covered Facility,NON-POTW,NA,NA,NA,NA,0,0,50,0.25,NA,NA,51.879224999914896,-176.569433999672,FALSE,FALSE
285,EPA ECHO CWA/NPDES facility locations,AKG523088,110070517800,GOLDEN HARVEST ALASKA INLAND WATER DISCHARGE VESSELS,ADAK,AK,Aleutians West (CA),Terminated,General Permit Covered Facility,NON-POTW,NA,NA,NA,NA,0,0,50,0.25,NA,NA,51.879224999914896,-176.569433999672,FALSE,FALSE
286,EPA ECHO CWA/NPDES facility locations,AKG523089,110070517800,GOLDEN HARVEST ALASKA INLAND WATER DISCHARGE VESSELS,ADAK,AK,Aleutians West (CA),Terminated,General Permit Covered Facility,NON-POTW,NA,NA,NA,NA,0,0,50,0.25,NA,NA,51.879224999914896,-176.569433999672,FALSE,FALSE
287,EPA ECHO CWA/NPDES facility locations,AKG523092,110070517800,GOLDEN HARVEST ALASKA INLAND WATER DISCHARGE VESSELS,ADAK,AK,Aleutians West (CA),Terminated,General Permit Covered Facility,NON-POTW,NA,NA,NA,NA,0,0,50,0.25,NA,NA,51.879224999914896,-176.569433999672,FALSE,FALSE
288,EPA ECHO CWA/NPDES facility locations,AKG523093,110070517800,GOLDEN HARVEST ALASKA INLAND WATER DISCHARGE VESSELS,ADAK,AK,Aleutians West (CA),Terminated,General Permit Covered Facility,NON-POTW,NA,NA,NA,NA,0,0,50,0.25,NA,NA,51.879224999914896,-176.569433999672,FALSE,FALSE
289,EPA ECHO CWA/NPDES facility locations,AK0053775,110064616330,DENALI NATIONAL PARK - FRONT COUNTRY WASTEWATER TREATMENT LAGOON,DENALI NATIONAL PARK,AK,Denali,Effective,NPDES Individual Permit,NON-POTW,0.11,0.06,NA,NA,1,20,20,0.18,N,Native Village of Cantwell - 24 mile(s),63.73176299995091,-148.887598999882,TRUE,FALSE
290,EPA ECHO CWA/NPDES facility locations,AKG375171,110012682711,"LEONARD EDWARDS, LARRY WADE / VALDEZ CREEK",UNKNOWN,AK,Matanuska-Susitna,Terminated,General Permit Covered Facility,NON-POTW,NA,NA,NA,NA,0,20.2,35.93,22.8,N,Native Village of Tatitlek - 24 mile(s),61.133950000154506,-146.248360000437,TRUE,FALSE
291,EPA ECHO CWA/NPDES facility locations,AKG330083,110067456069,OOOGURUK DEVELOPMENT PROJECT,UNKNOWN,AK,North Slope,Terminated,General Permit Covered Facility,NON-POTW,NA,NA,NA,NA,0,8.7,21.74,1.03,NA,NA,70.49559999995951,-150.25060000014497,FALSE,FALSE
292,EPA ECHO CWA/NPDES facility locations,AKG331083,110067456069,OOOGURUK DEVELOPMENT PROJECT,UNKNOWN,AK,North Slope,Terminated,General Permit Covered Facility,NON-POTW,NA,NA,NA,NA,0,8.7,21.74,1.03,NA,NA,70.49559999995951,-150.25060000014497,FALSE,FALSE
293,EPA ECHO CWA/NPDES facility locations,AKG331124,110067456069,OOOGURUK DEVELOPMENT PROJECT,DEADHORSE,AK,North Slope,Terminated,General Permit Covered Facility,NON-POTW,NA,NA,NA,NA,0,8.7,21.74,1.03,NA,NA,70.49559999995951,-150.25060000014497,FALSE,FALSE
294,EPA ECHO CWA/NPDES facility locations,AKG332016,110067456069,"HILCORP ALASKA, LLC - OOOGURUK DEVELOPMENT PROJECT",ANCHORAGE,AK,North Slope,Effective,General Permit Covered Facility,NON-POTW,NA,NA,NA,NA,1,8.7,21.74,1.03,NA,NA,70.49559999995951,-150.25060000014497,FALSE,FALSE
295,EPA ECHO CWA/NPDES facility locations,AKG571063,110067456069,OOOGURUK DEVELOPMENT PROJECT,UNKNOWN,AK,North Slope,Terminated,General Permit Covered Facility,NON-POTW,0.0125,0.006500000000000001,NA,NA,0,8.7,21.74,1.03,NA,NA,70.49559999995951,-150.25060000014497,FALSE,FALSE
296,EPA ECHO CWA/NPDES facility locations,AKG572034,110067456069,OOOGURUK DEVELOPMENT PROJECT WWTF,NORTH SLOPE,AK,North Slope,Effective,General Permit Covered Facility,NON-POTW,NA,NA,NA,NA,0,8.7,21.74,1.03,NA,NA,70.49559999995951,-150.25060000014497,FALSE,FALSE
297,EPA ECHO CWA/NPDES facility locations,AKG570030,110028072868,SKYLINE LODGE,DENALI NATIONAL PARK,AK,Denali,Terminated,General Permit Covered Facility,NON-POTW,5e-4,4e-4,NA,NA,0,20,20,0.18,NA,NA,63.53439999980991,-150.974116000138,FALSE,FALSE
298,EPA ECHO CWA/NPDES facility locations,AK0051063,110070262949,ARMIN KOERNIG HATCHERY,CORDOVA,AK,Unknown county,Pending,NPDES Individual Permit,NON-POTW,NA,NA,NA,NA,0,33.33,33.33,0.22,N,Native Village of Chenega (aka Chanega) - 3 mile(s),60.050093000116895,-148.066928000141,TRUE,FALSE
299,EPA ECHO CWA/NPDES facility locations,AKG130011,110070262949,PWSAC ARMIN F KOERNIG AQUACULTURE FACILITY,CORDOVA,AK,Unknown county,Admin Continued,General Permit Covered Facility,NON-POTW,NA,NA,NA,NA,1,33.33,33.33,0.22,N,Native Village of Chenega (aka Chanega) - 3 mile(s),60.050093000116895,-148.066928000141,TRUE,FALSE
300,EPA ECHO CWA/NPDES facility locations,AKG520555,110070262949,ARMIN F. KOERNIG HATCHERY,UNKNOWN,AK,Unknown county,Terminated,General Permit Covered Facility,NON-POTW,NA,NA,NA,NA,0,33.33,33.33,0.22,N,Native Village of Chenega (aka Chanega) - 3 mile(s),60.050093000116895,-148.066928000141,TRUE,FALSE
301,EPA ECHO CWA/NPDES facility locations,AK0029980,110070264103,MAIN BAY HATCHERY,CORDOVA,AK,Valdez-Cordova (CA),Pending,NPDES Individual Permit,NON-POTW,NA,NA,NA,NA,0,33.33,33.33,0.22,NA,NA,60.5185780001104,-148.09279600025002,FALSE,FALSE
302,EPA ECHO CWA/NPDES facility locations,AKG130021,110070264103,PWSAC MAIN BAY AQUACULTURE FACILITY,CORDOVA,AK,Unknown county,Admin Continued,General Permit Covered Facility,NON-POTW,NA,NA,NA,NA,2,33.33,33.33,0.22,NA,NA,60.5185780001104,-148.09279600025002,FALSE,FALSE
303,EPA ECHO CWA/NPDES facility locations,AKG520553,110070264103,MAIN BAY HATCHERY,PRINCE WILLIAM SOUND,AK,Valdez-Cordova (CA),Terminated,General Permit Covered Facility,NON-POTW,NA,NA,NA,NA,0,33.33,33.33,0.22,NA,NA,60.5185780001104,-148.09279600025002,FALSE,FALSE
304,EPA ECHO CWA/NPDES facility locations,AKNOE0177,110063113633,DITOMASO INC,ANCHORAGE,AK,Anchorage Municipality,Expired,General Permit Covered Facility,NON-POTW,NA,NA,NA,NA,0,36.879999999999995,59.47,2819.92,N,"Knik Tribe - 17 mile(s), Eklutna Native Village - 23 mile(s)",61.22835999988301,-149.83379999980997,TRUE,FALSE
305,EPA ECHO CWA/NPDES facility locations,AKR06AE94,110063221669,METCO ALASKA LLC,SEWARD,AK,Kenai Peninsula,Terminated,General Permit Covered Facility,NON-POTW,NA,NA,NA,NA,0,18.630000000000003,28.08,73.29,NA,NA,60.1412219998557,-149.41863800013903,FALSE,FALSE
306,EPA ECHO CWA/NPDES facility locations,AKR06GB04,110063221669,METCO ALASKA LLC,SEWARD,AK,Kenai Peninsula,Expired,General Permit Covered Facility,NON-POTW,NA,NA,NA,NA,1,18.630000000000003,28.08,73.29,NA,NA,60.1412219998557,-149.41863800013903,FALSE,FALSE
307,EPA ECHO CWA/NPDES facility locations,AKR10EQ90,110063221669,SHORESIDE SEWARD TANK FARM,HOPE-SEWARD CENSUS SUBAREA,AK,Kenai Peninsula,Terminated,General Permit Covered Facility,NON-POTW,NA,NA,NA,NA,0,18.630000000000003,28.08,73.29,NA,NA,60.1412219998557,-149.41863800013903,FALSE,FALSE
308,EPA ECHO CWA/NPDES facility locations,AKU000304,110063221669,METCO INC,SEWARD,AK,Kenai Peninsula,Unknown status,Unpermitted Facility,NON-POTW,NA,NA,NA,NA,0,18.630000000000003,28.08,73.29,NA,NA,60.1412219998557,-149.41863800013903,FALSE,FALSE
309,EPA ECHO CWA/NPDES facility locations,AKU000327,110070258267,TLINGIT AND HAIDA FISH CREEK,JUNEAU,AK,Juneau City and Borough,Unknown status,Unpermitted Facility,NON-POTW,NA,NA,NA,NA,0,11.02,32.63,12.57,N,"Central Council of the Tlingit & Haida Indian Tribes - 6 mile(s), Douglas Indian Association - 7 mile(s)",58.2976599998186,-134.545687000259,TRUE,FALSE
310,EPA ECHO CWA/NPDES facility locations,AKG331125,110070113918,COLVILLE AVIATION STORMWATER,PRUDHOE BAY,AK,North Slope,Terminated,General Permit Covered Facility,NON-POTW,NA,NA,NA,NA,0,8.7,21.74,1.03,NA,NA,70.1991850000713,-148.448756999691,FALSE,FALSE
311,EPA ECHO CWA/NPDES facility locations,AKG332041,110070113918,COLVILLE INC FIXED BASE OPERATIONS FBO,ANCHORAGE,AK,North Slope,Effective,General Permit Covered Facility,NON-POTW,NA,NA,NA,NA,2,8.7,21.74,1.03,NA,NA,70.1991850000713,-148.448756999691,FALSE,FALSE
312,EPA ECHO CWA/NPDES facility locations,AKG571041,110028073224,AUKE BAY FERRY TERMINAL,AUKE BAY,AK,Juneau City and Borough,Terminated,General Permit Covered Facility,NON-POTW,0.003,4.6e-4,NA,NA,0,10.93,16.16,99.51,N,"Central Council of the Tlingit & Haida Indian Tribes - 12 mile(s), Douglas Indian Association - 14 mile(s)",58.38198600010119,-134.685677000114,TRUE,FALSE
313,EPA ECHO CWA/NPDES facility locations,AK0055867,110043728712,DONLIN GOLD PROJECT,ANCHORAGE,AK,Bethel (CA),Admin Continued,NPDES Individual Permit,NON-POTW,NA,NA,NA,NA,1,50,100,0.07,N,"Village of Crooked Creek - 13 mile(s), Native Village of Georgetown - 17 mile(s)",62.0432639999281,-158.20896100042302,TRUE,FALSE
314,EPA ECHO CWA/NPDES facility locations,AKG700002,110038449649,GRACE HARBOR LTF,KETCHIKAN,AK,Ketchikan Gateway,Terminated,General Permit Covered Facility,NON-POTW,NA,NA,NA,NA,0,28.310000000000002,48.54,359.95,N,"Ketchikan Indian Community - 2 mile(s), Organized Village of Saxman - 4 mile(s), Metlakatla Indian Community, Annette Island Reserve - 6 mile(s), Organized Village of Kasaan - 23 mile(s)",55.3488999997757,-131.67022999970197,TRUE,FALSE
315,EPA ECHO CWA/NPDES facility locations,AKU000200,110022846955,AKIACHAK SEWAGE LAGOON,AKIACHAK,AK,Bethel (CA),Unknown status,Unpermitted Facility,NON-POTW,NA,NA,NA,NA,0,60,80,0.36,N,"Akiachak Native Community - 1 mile(s), Organized Village of Kwethluk - 8 mile(s), Akiak Native Community - 9 mile(s), Orutsararmiut Traditional Native Council - 14 mile(s), Oscarville Traditional Village - 18 mile(s), Native Village of Napaskiak - 18 mile(s), Tuluksak Native Community - 22 mile(s), Native Village of Napakiak - 23 mile(s)",60.9155409999534,-161.456917999898,TRUE,FALSE
316,EPA ECHO CWA/NPDES facility locations,AKR06AD27,110003041896,"ALASKA SCRAP AND RECYCLING, LLC",ANCHORAGE,AK,Anchorage Municipality,Expired,General Permit Covered Facility,NON-POTW,NA,NA,NA,NA,1,35.74,56.47,2898.57,N,"Knik Tribe - 17 mile(s), Eklutna Native Village - 24 mile(s)",61.22465700012181,-149.870000000109,TRUE,FALSE
317,EPA ECHO CWA/NPDES facility locations,AKU000234,110028066465,DOC WATER'S RESTAURANT,JUNEAU,AK,Juneau City and Borough,Unknown status,Unpermitted Facility,NON-POTW,NA,NA,NA,NA,0,20.779999999999998,30.439999999999998,262.9,N,"Central Council of the Tlingit & Haida Indian Tribes - 1 mile(s), Douglas Indian Association - 3 mile(s)",58.29934999992711,-134.405709999925,TRUE,FALSE
