row_id,source_dataset,pws_id,system_name,facility_id,source_type_code,source_type,federal_type_code,federal_type,activity_status,population_served,comment,longitude,latitude
1,ADEC SDWIS active PWS source locations,AK2111470   ,ELFIN COVE,29530,WL,Well,NC  ,NC  ,NA,320,NA,-136.34443061823703,58.196873919448905
2,ADEC SDWIS active PWS source locations,AK2130596   ,GUSTAVUS WATER SYSTEM,29535,WL,Well,NTNC,Non-transient non-community,NA,117,NA,-135.708873681619,58.4180850120849
3,ADEC SDWIS active PWS source locations,AK2111275   ,DALTON CACHE (HAINES) BORDER STATION,29557,WL,Well,NC  ,NC  ,NA,124,NA,-136.36198134009504,59.450323888738296
4,ADEC SDWIS active PWS source locations,AK2110106   ,ECHO RANCH BIBLE CAMP - JUNEAU AK,29566,WL,Well,NC  ,NC  ,NA,160,NA,-134.940020752516,58.67868412497501
5,ADEC SDWIS active PWS source locations,AK2110342   ,CITY AND BOROUGH OF JUNEAU,29570,WL,Well,C   ,C   ,NA,38526,NA,-134.396970489976,58.3072782141061
6,ADEC SDWIS active PWS source locations,AK2110110   ,TAKU GLACIER LODGE,29571,WL,Well,NC  ,NC  ,NA,110,NA,-133.94073054374797,58.49219228073931
7,ADEC SDWIS active PWS source locations,AK2130164   ,GLACIER BEAR LODGE,29579,WL,Well,NC  ,NC  ,NA,56,NA,-139.700321657712,59.53748336184079
8,ADEC SDWIS active PWS source locations,AK2130172   ,YAKUTAT PWS,29587,WL,Well,C   ,C   ,NA,740,NA,-139.73381166370095,59.5436233563499
9,ADEC SDWIS active PWS source locations,AK2110318   ,CHURCHILL PARK,29592,WL,Well,C   ,C   ,NA,250,NA,-134.49184553314797,58.367862198721
10,ADEC SDWIS active PWS source locations,AK2111476   ,GUSTAVUS AIRPORT,29593,WL,Well,NC  ,NC  ,NA,56,NA,-135.703370682619,58.4208240128732
11,ADEC SDWIS active PWS source locations,AK2110601   ,SKAGWAY,29597,WL,Well,C   ,C   ,NA,9411,NA,-135.30952124709,59.4631440526897
12,ADEC SDWIS active PWS source locations,AK2110106   ,ECHO RANCH BIBLE CAMP - JUNEAU AK,29604,WL,Well,NC  ,NC  ,NA,160,NA,-134.940690752363,58.67829412487921
13,ADEC SDWIS active PWS source locations,AK2110601   ,SKAGWAY,29608,WL,Well,C   ,C   ,NA,9411,NA,-135.307951246477,59.4623840529501
14,ADEC SDWIS active PWS source locations,AK2110106   ,ECHO RANCH BIBLE CAMP - JUNEAU AK,29610,WL,Well,NC  ,NC  ,NA,160,NA,-134.942290752468,58.6781941246356
15,ADEC SDWIS active PWS source locations,AK2110601   ,SKAGWAY,29619,WL,Well,C   ,C   ,NA,9411,NA,-135.30873124678303,59.4627640528207
16,ADEC SDWIS active PWS source locations,AK2120779   ,GLACIER INN,29621,WL,Well,NC  ,NC  ,NA,39,NA,-130.019326783884,55.91100387320789
17,ADEC SDWIS active PWS source locations,AK2130172   ,YAKUTAT PWS,29625,WL,Well,C   ,C   ,NA,740,NA,-139.73432166388196,59.54386335626139
18,ADEC SDWIS active PWS source locations,AK2111465   ,GOLD RUSH TRAIL CAMP,29626,WL,Well,NC  ,NC  ,NA,256,NA,-135.27346125984295,59.49030405774709
19,ADEC SDWIS active PWS source locations,AK2111513   ,DOC WARNERS FISH CAMP,29637,IN,Intake,NC  ,NC  ,NA,90,NA,-135.423480633543,58.38069405642899
20,ADEC SDWIS active PWS source locations,AK2121131   ,SALMON FALLS RESORT,29665,IN,Intake,NC  ,NC  ,NA,100,NA,-131.75468881142302,55.4925246260101
21,ADEC SDWIS active PWS source locations,AK2120591   ,THE LODGE AT YES BAY,29672,IN,Intake,NC  ,NC  ,NA,50,NA,-131.79886900761903,55.919239619090995
22,ADEC SDWIS active PWS source locations,AK2110643   ,EAGLECREST SKI AREA,29675,IN,Intake,NC  ,NC  ,NA,771,NA,-134.517125484314,58.274235196360706
23,ADEC SDWIS active PWS source locations,AK2120436   ,COFFMAN COVE,29684,IN,Intake,C   ,C   ,NA,199,NA,-132.82513916252802,56.00168447119728
24,ADEC SDWIS active PWS source locations,AK2121467   ,EL CAPITAN LODGE,29706,IN,Intake,NC  ,NC  ,NA,38,NA,-133.26100218997598,55.95770440857239
25,ADEC SDWIS active PWS source locations,AK2130148   ,PETERSBURG,29721,IN,Intake,C   ,C   ,NA,3218,NA,-132.91389954350097,56.78632445320499
26,ADEC SDWIS active PWS source locations,AK2130156   ,PORT ALEXANDER PWS,29737,IN,Intake,C   ,C   ,NA,95,NA,-134.66498946856998,56.2454442021504
27,ADEC SDWIS active PWS source locations,AK2120567   ,WATERFALL RESORT,29759,IN,Intake,NC  ,NC  ,NA,168,NA,-133.22453189340197,55.30420741758779
28,ADEC SDWIS active PWS source locations,AK2111523   ,SHRINE OF ST. THERESE,29769,IN,Intake,NC  ,NC  ,NA,78,NA,-134.782995619406,58.469695152655
29,ADEC SDWIS active PWS source locations,AK2133333   ,WHALERS COVE LODGE,29790,IN,Intake,NC  ,NC  ,NA,65,NA,-134.570140061792,57.4687342004132
30,ADEC SDWIS active PWS source locations,AK2120193   ,CRAIG PUBLIC WORKS,29829,IN,Intake,C   ,C   ,NA,1475,NA,-132.915985930323,55.464084460793984
31,ADEC SDWIS active PWS source locations,AK2119205   ,HECLA GREENS CREEK 920 LEVEL,29856,IN,Intake,NTNC,Non-transient non-community,NA,175,NA,-134.632156392058,58.0828591819202
32,ADEC SDWIS active PWS source locations,AK2130075   ,SITKA,29916,IN,Intake,C   ,C   ,NA,9448,NA,-135.200069917838,57.0630941123721
33,ADEC SDWIS active PWS source locations,AK2130198   ,BARTLETT COVE WATER SYS,29954,IN,Intake,NTNC,Non-transient non-community,NA,123,NA,-135.87593071674098,58.452913985818704
34,ADEC SDWIS active PWS source locations,AK2120232   ,KETCHIKAN PUBLIC UTILITIES,30037,IN,Intake,C   ,C   ,NA,8937,NA,-131.62096873359798,55.35078364503269
35,ADEC SDWIS active PWS source locations,AK2110855   ,HAINES FERRY TERMINAL,30076,IN,Intake,NC  ,NC  ,NA,104,NA,-135.47674615355902,59.27889203049571
36,ADEC SDWIS active PWS source locations,AK2120606   ,KASAAN,30107,IN,Intake,C   ,C   ,NA,66,NA,-132.39806390842702,55.544574534353494
37,ADEC SDWIS active PWS source locations,AK2121463   ,SILVERKING LODGE,30116,IN,Intake,NC  ,NC  ,NA,46,NA,-131.720741830212,55.54410463079039
38,ADEC SDWIS active PWS source locations,AK2110342   ,CITY AND BOROUGH OF JUNEAU,30134,IN,Intake,C   ,C   ,NA,38526,NA,-134.403822509686,58.341855212526
39,ADEC SDWIS active PWS source locations,AK2120224   ,HYDABURG,30137,IN,Intake,C   ,C   ,NA,415,NA,-132.80747881344703,55.224294477164996
40,ADEC SDWIS active PWS source locations,AK2130122   ,PELICAN UTILITIES,30151,IN,Intake,C   ,C   ,NA,230,NA,-136.21529647711,57.958172944014606
41,ADEC SDWIS active PWS source locations,AK2120020   ,CLOVER PASS RESORT,30196,IN,Intake,NC  ,NC  ,NA,133,NA,-131.814607809738,55.4727946175179
42,ADEC SDWIS active PWS source locations,AK2130148   ,PETERSBURG,30213,IN,Intake,C   ,C   ,NA,3218,NA,-132.827419521167,56.7603044660762
43,ADEC SDWIS active PWS source locations,AK2121034   ,CLOVER BAY LODGE,30243,IN,Intake,NC  ,NC  ,NA,59,NA,-132.15507777487997,55.30341956944109
44,ADEC SDWIS active PWS source locations,AK2120169   ,KLAWOCK,30265,IN,Intake,C   ,C   ,NA,904,NA,-133.02144398212204,55.55499244531289
45,ADEC SDWIS active PWS source locations,AK2120216   ,"THORNE BAY, CITY OF",30296,IN,Intake,C   ,C   ,NA,470,NA,-132.51281898743406,55.69273451746991
46,ADEC SDWIS active PWS source locations,AK2130017   ,ANGOON PUBLIC WATER,30309,IN,Intake,C   ,C   ,NA,450,NA,-134.522053051688,57.458591207749194
47,ADEC SDWIS active PWS source locations,AK2120143   ,WRANGELL,30325,IN,Intake,C   ,C   ,NA,2300,NA,-132.370041322918,56.455362534713196
48,ADEC SDWIS active PWS source locations,AK2121093   ,SPORTSMANS COVE LODGE,30384,IN,Intake,NC  ,NC  ,NA,55,NA,-132.33094883689003,55.399594544294594
49,ADEC SDWIS active PWS source locations,AK2120127   ,SAXMAN,30392,IN,Intake,C   ,C   ,NA,450,NA,-131.595398718711,55.323514648649805
50,ADEC SDWIS active PWS source locations,AK2121474   ,GEORGE INLET LODGE,30401,IN,Intake,NC  ,NC  ,NA,49,NA,-131.47598472365195,55.367295665549996
51,ADEC SDWIS active PWS source locations,AK2113560   ,HECLA GREENS CREEK HAWK INLET,30412,IN,Intake,NTNC,Non-transient non-community,NA,151,NA,-134.746450424633,58.121624163981
52,ADEC SDWIS active PWS source locations,AK2130067   ,HOONAH PWS,30455,IN,Intake,C   ,C   ,NA,980,NA,-135.39476045760603,58.0641540665916
53,ADEC SDWIS active PWS source locations,AK2291211   ,VALDEZ ROBE RIVER S/D,32747,WL,Well,C   ,C   ,NA,464,NA,-146.20405495248698,61.09749524813121
54,ADEC SDWIS active PWS source locations,AK2245587   ,"BIRCH RIDGE GOLF COURSE, INC.",32750,WL,Well,NC  ,NC  ,NA,30,NA,-151.00590553670696,60.4985685057941
55,ADEC SDWIS active PWS source locations,AK2263016   ,SWRSD TWIN HILLS SCHOOL,32751,WL,Well,NTNC,Non-transient non-community,NA,38,NA,-160.28010114344698,59.0752401639328
56,ADEC SDWIS active PWS source locations,AK2221410   ,SPENARD BUILDERS SUPPLY  WASILLA,32758,WL,Well,NTNC,Non-transient non-community,NA,63,NA,-149.49331130669103,61.578681680881495
57,ADEC SDWIS active PWS source locations,AK2271148   ,BETHEL TRAILER COURT,32761,WL,Well,C   ,C   ,NA,446,NA,-161.80060204378302,60.7834197650509
58,ADEC SDWIS active PWS source locations,AK2226622   ,LAKE LOUISE LODGE,32770,WL,Well,NC  ,NC  ,NA,29,NA,-146.51378382088495,62.27863213157851
59,ADEC SDWIS active PWS source locations,AK2240618   ,KPBSD TUSTUMENA ELEMENTARY,32771,WL,Well,NTNC,Non-transient non-community,NA,185,NA,-151.26375240619896,60.30818147725399
60,ADEC SDWIS active PWS source locations,AK2211643   ,HANSHEW HEIGHTS S/D,32772,WL,Well,NC  ,NC  ,NA,170,NA,-149.78672298966902,61.13656166124979
61,ADEC SDWIS active PWS source locations,AK2223111   ,SPEEDWAY KGB,32775,WL,Well,NC  ,NC  ,NA,1162,NA,-149.53550328731797,61.55242267563319
62,ADEC SDWIS active PWS source locations,AK2260074   ,SAINT GEORGE WATER SYSTEM,32777,WL,Well,C   ,C   ,NA,65,NA,-169.53552377936896,56.5956390906746
63,ADEC SDWIS active PWS source locations,AK2244989   ,APOSTOLIC ASSEMBLY OF JESUS CHRIST,32786,WL,Well,NC  ,NC  ,NA,70,NA,-150.92031254243506,60.50460151916439
64,ADEC SDWIS active PWS source locations,AK2210354   ,INLET VIEW MHP CHUGIAK,32794,WL,Well,C   ,C   ,NA,47,NA,-149.51442315481697,61.367086690945094
65,ADEC SDWIS active PWS source locations,AK2224743   ,IDITAROD HEADQUARTERS WASILLA,32795,WL,Well,NC  ,NC  ,NA,158,NA,-149.47841329385597,61.5607216844774
66,ADEC SDWIS active PWS source locations,AK2240757   ,SEWARD,32796,WL,Well,C   ,C   ,NA,3324,NA,-149.436652319205,60.13084178163809
67,ADEC SDWIS active PWS source locations,AK2240854   ,GREAT ALASKA ADVENTURES,32797,WL,Well,NC  ,NC  ,NA,25,NA,-150.75855456690596,60.5368065430587
68,ADEC SDWIS active PWS source locations,AK2221680   ,VITUS ENERGY - TRAPPER CREEK,32803,WL,Well,NC  ,NC  ,NA,211,NA,-150.236893854029,62.32584150918639
69,ADEC SDWIS active PWS source locations,AK2292099   ,ALASKA BIBLE COLLEGE,32810,WL,Well,C   ,C   ,NA,50,NA,-145.52975667776198,62.114757304204396
70,ADEC SDWIS active PWS source locations,AK2247694   ,BELUGA RIVER MAN CAMP,32818,WL,Well,NC  ,NC  ,NA,41,NA,-151.066082977174,61.14918945202249
71,ADEC SDWIS active PWS source locations,AK2220260   ,HOLY MOLEY DONUT SHOP,32823,WL,Well,NC  ,NC  ,NA,100,NA,-149.39446431109002,61.5835186968131
72,ADEC SDWIS active PWS source locations,AK2223593   ,SUMMIT WORSHIP CENTER,32828,WL,Well,NC  ,NC  ,NA,204,NA,-149.451463301907,61.57152168821389
73,ADEC SDWIS active PWS source locations,AK2271114   ,TUNDRA WOMENS COALITION,32829,WL,Well,NC  ,NC  ,NA,48,NA,-161.77393405383597,60.7944957681322
74,ADEC SDWIS active PWS source locations,AK2270273   ,MARSHALL WATER SYSTEM,32839,WL,Well,C   ,C   ,NA,308,NA,-162.080332759451,61.875269613451394
75,ADEC SDWIS active PWS source locations,AK2225511   ,WESTWOOD WATER COMPANY INC,32841,WL,Well,C   ,C   ,NA,180,NA,-149.45643334111003,61.62571668393411
76,ADEC SDWIS active PWS source locations,AK2260074   ,SAINT GEORGE WATER SYSTEM,32844,WL,Well,C   ,C   ,NA,65,NA,-169.53363577974193,56.5958530909066
77,ADEC SDWIS active PWS source locations,AK2214007   ,ALYESKA CHALET CONDOS HOA,32848,WL,Well,C   ,C   ,NA,60,NA,-149.153709872382,60.95903477556829
78,ADEC SDWIS active PWS source locations,AK2240202   ,USFS COOPER CREEK #1 SOUTH,32852,WL,Well,NC  ,NC  ,NA,25,NA,-149.88328954441002,60.48271468761139
79,ADEC SDWIS active PWS source locations,AK2218554   ,RABBIT CREEK RIFLE RANGE,32856,WL,Well,NC  ,NC  ,NA,29,NA,-149.83294295114,61.081961657238686
80,ADEC SDWIS active PWS source locations,AK2223145   ,SCOTWOOD ESTATES WATER SYSTEM,32858,WL,Well,C   ,C   ,NA,90,NA,-149.411043343362,61.6282516912355
81,ADEC SDWIS active PWS source locations,AK2210312   ,AK CHILD AND FAMILY,32865,WL,Well,NTNC,Non-transient non-community,NA,100,NA,-149.79398798939,61.136282660083594
82,ADEC SDWIS active PWS source locations,AK2211198   ,ANCHORAGE SANDS APARTMENTS,32866,WL,Well,C   ,C   ,NA,160,NA,-149.91470802687397,61.192011636797005
83,ADEC SDWIS active PWS source locations,AK2223658   ,MSBSD COTTONWOOD CREEK ELEM,32869,WL,Well,NTNC,Non-transient non-community,NA,475,NA,-149.36163531443003,61.58774470193849
84,ADEC SDWIS active PWS source locations,AK2260333   ,SOUTH NAKNEK WATER SYSTEM,32880,WL,Well,C   ,C   ,NA,66,NA,-157.00975118600996,58.712340696364905
85,ADEC SDWIS active PWS source locations,AK2211075   ,OW DIMOND ESTATES TRAILER COURT,32883,WL,Well,C   ,C   ,NA,1395,NA,-149.90521799110698,61.140664641670796
86,ADEC SDWIS active PWS source locations,AK2224256   ,SHORES OF ANCIENT TREE,32884,WL,Well,C   ,C   ,NA,170,NA,-149.356043320541,61.5961217023245
87,ADEC SDWIS active PWS source locations,AK2243103   ,COLLEGE PARK HOME OWNERS ASSOC,32885,WL,Well,C   ,C   ,NA,85,NA,-151.157042524594,60.48509148238809
88,ADEC SDWIS active PWS source locations,AK2244484   ,KPBSD NIKISKI MIDDLE/HIGH SCHOOL,32890,WL,Well,NTNC,Non-transient non-community,NA,439,NA,-151.298482687447,60.7339714426515
89,ADEC SDWIS active PWS source locations,AK2248250   ,ROSCOS PIZZA,32898,WL,Well,NC  ,NC  ,NA,56,NA,-151.67737222437194,60.041271429389695
90,ADEC SDWIS active PWS source locations,AK2249727   ,NEW LIFE CHRISTIAN FELLOWSHIP,32914,WL,Well,NC  ,NC  ,NA,52,NA,-151.26920142151496,60.33186547477109
91,ADEC SDWIS active PWS source locations,AK2261096   ,CHIGNIK LAKE WATER SYSTEM,32916,WL,Well,C   ,C   ,NA,200,NA,-158.763748801235,56.2535596474376
92,ADEC SDWIS active PWS source locations,AK2261591   ,BRISTOL BAY BOROUGH DOCK,32917,WL,Well,NC  ,NC  ,NA,225,NA,-156.98393219960198,58.73341269855431
93,ADEC SDWIS active PWS source locations,AK2213530   ,PETERS CREEK TERRACE APTS.,32922,WL,Well,C   ,C   ,NA,48,NA,-149.43035319409796,61.42115170126629
94,ADEC SDWIS active PWS source locations,AK2215566   ,HOMER DRIVE APTS.,32925,WL,Well,C   ,C   ,NA,50,NA,-149.86162201852702,61.17914864628901
95,ADEC SDWIS active PWS source locations,AK2227440   ,LAZY MOUNTAIN BIBLE CHURCH,32928,WL,Well,NC  ,NC  ,NA,102,NA,-149.05058333372,61.611279751583794
96,ADEC SDWIS active PWS source locations,AK2270338   ,CHEFORNAK WATER SYSTEM,32938,WL,Well,C   ,C   ,NA,513,NA,-164.27371436677794,60.1589744467301
97,ADEC SDWIS active PWS source locations,AK2250605   ,USCG BEAR VALLEY GOLF COURSE,32949,WL,Well,NC  ,NC  ,NA,59,NA,-152.55908688282003,57.7848154485005
98,ADEC SDWIS active PWS source locations,AK2244997   ,OFFSHORE SYSTEMS KENAI,32952,WL,Well,NC  ,NC  ,NA,74,NA,-151.307912690833,60.739321440762396
99,ADEC SDWIS active PWS source locations,AK2260325   ,TOGIAK WATER SYSTEM,32957,WL,Well,C   ,C   ,NA,910,NA,-160.41429112502698,59.06407014453671
100,ADEC SDWIS active PWS source locations,AK2249379   ,"RESURRECTION ROADHOUSE RESTAURANT, WELL",32963,WL,Well,NC  ,NC  ,NA,100,NA,-149.435535334199,60.15410078036359
101,ADEC SDWIS active PWS source locations,AK2241062   ,SALMON CREEK TRAILER COURT,32969,WL,Well,C   ,C   ,NA,125,NA,-149.40801233098702,60.1487787851065
102,ADEC SDWIS active PWS source locations,AK2298932   ,TSAINA LODGE,32979,WL,Well,NC  ,NC  ,NA,43,NA,-145.553495009736,61.1976563490521
103,ADEC SDWIS active PWS source locations,AK2227615   ,NATL OUTDOOR LEADERSHIP SCHOOL,32982,WL,Well,NC  ,NC  ,NA,112,NA,-149.14809035729203,61.644592733448704
104,ADEC SDWIS active PWS source locations,AK2291596   ,KENNY LAKE COMMUNITY WELL,32985,WL,Well,C   ,C   ,NA,236,NA,-145.01171537585796,61.726519410411505
105,ADEC SDWIS active PWS source locations,AK2225821   ,KINGS CHAPEL,32992,WL,Well,NC  ,NC  ,NA,350,NA,-149.36584930279605,61.571707702266586
106,ADEC SDWIS active PWS source locations,AK2220692   ,ISLANDER BAR & RESTAURANT,33007,WL,Well,NC  ,NC  ,NA,38,NA,-149.883469276366,61.542654619141494
107,ADEC SDWIS active PWS source locations,AK2224036   ,ELSINORE ESTATES SUBDIVISION,33012,WL,Well,C   ,C   ,NA,120,NA,-149.406484315144,61.589267694471495
108,ADEC SDWIS active PWS source locations,AK2249662   ,REAL ALASKAN CABINS & RV,33014,WL,Well,NC  ,NC  ,NA,86,NA,-150.709369558625,60.5229495519041
109,ADEC SDWIS active PWS source locations,AK2260634   ,L&PSD NEWHALEN SCHOOL,33016,WL,Well,NTNC,Non-transient non-community,NA,85,NA,-154.89425190213402,59.72019094333431
110,ADEC SDWIS active PWS source locations,AK2224557   ,MEADOW LAKES CENTER,33023,WL,Well,NTNC,Non-transient non-community,NA,276,NA,-149.633393307955,61.58238165763169
111,ADEC SDWIS active PWS source locations,AK2244824   ,HIGHER GROUND BAPTIST BIBLE CAMP,33025,WL,Well,NC  ,NC  ,NA,90,NA,-150.87524357790002,60.556727522927595
112,ADEC SDWIS active PWS source locations,AK2270150   ,MOUNTAIN VILLAGE WATER SYSTEM,33042,WL,Well,C   ,C   ,NA,887,NA,-163.73812771794402,62.09061132865791
113,ADEC SDWIS active PWS source locations,AK2270168   ,RUSSIAN MISSION WATER SYSTEM,33043,WL,Well,C   ,C   ,NA,340,NA,-161.32203277763907,61.7857697429476
114,ADEC SDWIS active PWS source locations,AK2280171   ,ANVIK WATER SYSTEM,33044,WL,Well,C   ,C   ,NA,96,NA,-160.199711532603,62.652486841205494
115,ADEC SDWIS active PWS source locations,AK2226428   ,VIOLET CIRCLE WATER COMPANY,33050,WL,Well,C   ,C   ,NA,35,NA,-149.15408730793004,61.57657573675271
116,ADEC SDWIS active PWS source locations,AK2218641   ,HILLTOP SKI AREA - CHALET,33056,WL,Well,NC  ,NC  ,NA,101,NA,-149.74413899281998,61.140386667945194
117,ADEC SDWIS active PWS source locations,AK2218642   ,NEAR POINT KNOLL SUBDIVISION,33057,WL,Well,C   ,C   ,NA,28,NA,-149.68724501028305,61.16450167567339
118,ADEC SDWIS active PWS source locations,AK2213019   ,EKLUTNA GATE,33059,WL,Well,C   ,C   ,NA,45,NA,-149.36908322028998,61.45704670902619
119,ADEC SDWIS active PWS source locations,AK2218582   ,WHITTIER ACCESS TUNNEL,33061,WL,Well,NC  ,NC  ,NA,69,NA,-148.81566675856598,60.79000684092592
120,ADEC SDWIS active PWS source locations,AK2245406   ,PENINSULA GRACE BRETHREN CHURCH,33083,WL,Well,NC  ,NC  ,NA,306,NA,-151.14980252330494,60.48290148370099
121,ADEC SDWIS active PWS source locations,AK2334035   ,THE INN AT COLDFOOT,33087,WL,Well,NC  ,NC  ,NA,120,NA,-150.17644757865702,67.2513111818806
122,ADEC SDWIS active PWS source locations,AK2350023   ,ALYESKA PS 5 PERM,33088,WL,Well,NTNC,Non-transient non-community,NA,60,NA,-150.68017706253502,66.81872612290888
123,ADEC SDWIS active PWS source locations,AK2222822   ,FIRST BAPTIST CHURCH OF WASILLA,33091,WL,Well,NC  ,NC  ,NA,203,NA,-149.41363331525798,61.589511693281196
124,ADEC SDWIS active PWS source locations,AK2245317   ,KENAI UNITED PENTECOSTAL CHURCH,33094,WL,Well,NC  ,NC  ,NA,57,NA,-151.3335316056,60.6131054452585
125,ADEC SDWIS active PWS source locations,AK2270215   ,TOKSOOK BAY WATER SYSTEM,33095,WL,Well,C   ,C   ,NA,661,NA,-165.11585149939896,60.5427992773327
126,ADEC SDWIS active PWS source locations,AK2244719   ,S & S CENTER,33096,WL,Well,NTNC,Non-transient non-community,NA,54,NA,-151.15204752503104,60.485589483157796
127,ADEC SDWIS active PWS source locations,AK2245294   ,NIKISKI CHURCH OF CHRIST,33097,WL,Well,NC  ,NC  ,NA,35,NA,-151.347157673703,60.7152424360721
128,ADEC SDWIS active PWS source locations,AK2210574   ,TOTEM TRAILER TOWN TC,33103,WL,Well,C   ,C   ,NA,480,NA,-149.80420304415298,61.21474165335849
129,ADEC SDWIS active PWS source locations,AK2243420   ,USNPS EXIT GLACIER NATURE CENTER,33119,WL,Well,NC  ,NC  ,NA,1500,NA,-149.63242235444002,60.188141746667
130,ADEC SDWIS active PWS source locations,AK2243933   ,NINILCHIK SENIOR CITIZEN INC.,33120,WL,Well,NC  ,NC  ,NA,55,NA,-151.66012822591,60.0430004320199
131,ADEC SDWIS active PWS source locations,AK2261282   ,BBAHC - KANAKANAK HOSPITAL,33121,WL,Well,C   ,C   ,NA,305,NA,-158.542735242764,58.9990864365225
132,ADEC SDWIS active PWS source locations,AK2260139   ,NAPASKIAK WEST WATER SYSTEM,33127,WL,Well,C   ,C   ,NA,200,NA,-161.76699499776598,60.70740777775829
133,ADEC SDWIS active PWS source locations,AK2242084   ,POACHERS COVE PLANNED UNIT DEVELOPMENT,33130,WL,Well,NC  ,NC  ,NA,400,NA,-151.10482253855398,60.504501489475594
134,ADEC SDWIS active PWS source locations,AK2214861   ,SKYVIEW WATER SYSTEM,33140,WL,Well,NC  ,NC  ,NA,55,NA,-149.46358117401496,61.39340469759059
135,ADEC SDWIS active PWS source locations,AK2212461   ,HILLSIDE PARK S/D,33148,WL,Well,C   ,C   ,NA,144,NA,-149.748315981705,61.1245086682852
136,ADEC SDWIS active PWS source locations,AK2245854   ,SOLDOTNA CENTENNIAL #2,33173,WL,Well,NC  ,NC  ,NA,200,NA,-151.09775252345398,60.481431492172696
137,ADEC SDWIS active PWS source locations,AK2240896   ,HOME PORT CONDO ASSOC. INC.,33176,WL,Well,NC  ,NC  ,NA,221,NA,-151.256982552331,60.53036146323269
138,ADEC SDWIS active PWS source locations,AK2226290   ,LONG RIFLE LODGE,33177,WL,Well,NC  ,NC  ,NA,25,NA,-147.78389047057698,61.79695694895392
139,ADEC SDWIS active PWS source locations,AK2227539   ,TWIN PEAKS,33178,WL,Well,C   ,C   ,NA,37,NA,-149.17834823203904,61.47140573939849
140,ADEC SDWIS active PWS source locations,AK2224882   ,MSBSD WILLOW ELEMENTARY,33194,WL,Well,NTNC,Non-transient non-community,NA,250,NA,-150.047709418902,61.741899579122894
141,ADEC SDWIS active PWS source locations,AK2271473   ,TUNDRA CENTER WATER SYSTEM,33197,WL,Well,NC  ,NC  ,NA,80,NA,-161.77487305552197,60.79722176771799
142,ADEC SDWIS active PWS source locations,AK2224832   ,MSB BIG LAKE LIBRARY,33204,WL,Well,NC  ,NC  ,NA,28,NA,-149.81830028179903,61.5490736294208
143,ADEC SDWIS active PWS source locations,AK2211897   ,KATHY O ESTATES,33210,WL,Well,C   ,C   ,NA,242,NA,-149.89833902384,61.18738663976689
144,ADEC SDWIS active PWS source locations,AK2261143   ,"NORTH PACIFIC SEAFOODS, PEDERSON POINT",33228,WL,Well,NC  ,NC  ,NA,300,NA,-157.062771210472,58.761434684101104
145,ADEC SDWIS active PWS source locations,AK2243608   ,"HILCORP ALASKA, LLC BELUGA RIVER CAMP",33234,WL,Well,NC  ,NC  ,NA,31,NA,-151.034442997202,61.17691645528859
146,ADEC SDWIS active PWS source locations,AK2211952   ,WHITTIER WATER SYSTEM,33235,WL,Well,C   ,C   ,NA,650,NA,-148.68839874844102,60.774504862511705
147,ADEC SDWIS active PWS source locations,AK2221208   ,WASILLA WEST SUBDIVISION,33238,WL,Well,C   ,C   ,NA,200,NA,-149.55412331026304,61.5844416705217
148,ADEC SDWIS active PWS source locations,AK2224531   ,VALLEY COUNTRY STORE #1,33239,WL,Well,NC  ,NC  ,NA,365,NA,-149.32856633278703,61.612706705786394
149,ADEC SDWIS active PWS source locations,AK2241818   ,SOLDOTNA CENTENNIAL #1,33248,WL,Well,NC  ,NC  ,NA,200,NA,-151.092702522668,60.48007849307649
150,ADEC SDWIS active PWS source locations,AK2226575   ,NORTH STAR BIBLE CAMP,33263,WL,Well,NC  ,NC  ,NA,44,NA,-149.726703447324,61.77503062983491
151,ADEC SDWIS active PWS source locations,AK2227092   ,MSBSD GLACIER VIEW SCHOOL,33264,WL,Well,NTNC,Non-transient non-community,NA,50,NA,-147.72297646800902,61.7938419591955
152,ADEC SDWIS active PWS source locations,AK2244808   ,ALPINE INN,33266,WL,Well,NC  ,NC  ,NA,30,NA,-149.82140154968803,60.48960969714269
153,ADEC SDWIS active PWS source locations,AK2294002   ,CRSD KENNY LAKE HIGH SCHOOL,33285,WL,Well,NTNC,Non-transient non-community,NA,30,NA,-145.006624375481,61.7261914112681
154,ADEC SDWIS active PWS source locations,AK2214471   ,SALVATION ARMY - ANCHORAGE KOREAN CORPS,33288,WL,Well,NC  ,NC  ,NA,152,NA,-149.84240295921603,61.0937516549375
155,ADEC SDWIS active PWS source locations,AK2227663   ,LAUNDRY AND PIONEER PIZZA. THE,33308,WL,Well,NC  ,NC  ,NA,25,NA,-149.036673288079,61.54807175783609
156,ADEC SDWIS active PWS source locations,AK2211059   ,ASD HUFFMAN ELEMENTARY SCHOOL,33312,WL,Well,NTNC,Non-transient non-community,NA,506,NA,-149.80839497139002,61.110681659385484
157,ADEC SDWIS active PWS source locations,AK2215605   ,KINCAID PARK CHALET,33314,WL,Well,NC  ,NC  ,NA,26,NA,-150.05371299931497,61.15521161652191
158,ADEC SDWIS active PWS source locations,AK2226355   ,FISHHOOK BAR & GRILL,33316,WL,Well,NC  ,NC  ,NA,31,NA,-149.23972338910997,61.6891717155488
159,ADEC SDWIS active PWS source locations,AK2244002   ,DUCK INN,33319,WL,Well,NC  ,NC  ,NA,200,NA,-151.159238531104,60.495015481362294
160,ADEC SDWIS active PWS source locations,AK2244329   ,KPBSD SKYVIEW MIDDLE SCHOOL,33320,WL,Well,NTNC,Non-transient non-community,NA,650,NA,-151.10084450682598,60.4563294933718
161,ADEC SDWIS active PWS source locations,AK2214219   ,THE CROSSING @ BIRCHWOOD,33343,WL,Well,NTNC,Non-transient non-community,NA,466,NA,-149.47010318154096,61.404051695843584
162,ADEC SDWIS active PWS source locations,AK2214227   ,AMERICAN LEGION POST 33,33344,WL,Well,NC  ,NC  ,NA,50,NA,-149.439043189282,61.414511700265294
163,ADEC SDWIS active PWS source locations,AK2244159   ,SEWARD MARINE INDUSTRIAL CENT,33354,WL,Well,C   ,C   ,NA,545,NA,-149.32847829708504,60.09515080118551
164,ADEC SDWIS active PWS source locations,AK2299071   ,CRSD KENNY LAKE ELEM. NEW WELL,33355,WL,Well,NTNC,Non-transient non-community,NA,56,NA,-145.008671375596,61.726272410926306
165,ADEC SDWIS active PWS source locations,AK2333788   ,ALYESKA  5 MILE WELL/SPRING,33356,WL,Well,NC  ,NC  ,NA,40,NA,-149.82998909497198,65.91966633570601
166,ADEC SDWIS active PWS source locations,AK2260066   ,NEWHALEN WATER SYSTEM,33361,WL,Well,C   ,C   ,NA,80,NA,-154.897611903522,59.722710942608614
167,ADEC SDWIS active PWS source locations,AK2263014   ,FAA KING SALMON FAMILY HOUSING,33362,WL,Well,C   ,C   ,NA,61,NA,-156.68789119466499,58.692040747429914
168,ADEC SDWIS active PWS source locations,AK2225683   ,US POSTAL SERVICE WASILLA CARRIER ANNEX,33368,WL,Well,NTNC,Non-transient non-community,NA,33,NA,-149.37168331373303,61.586900700341
169,ADEC SDWIS active PWS source locations,AK2225058   ,KENDALL AUTOMOTIVE GROUP - SHOWROOM,33372,WL,Well,NTNC,Non-transient non-community,NA,55,NA,-149.38190330339904,61.572731699564
170,ADEC SDWIS active PWS source locations,AK2241101   ,BAY VIEW TRAILER COURT,33373,WL,Well,C   ,C   ,NA,51,NA,-149.37389931889402,60.1295987917681
171,ADEC SDWIS active PWS source locations,AK2249125   ,DEEP CREEK VIEW CAMPGROUND,33374,WL,Well,NC  ,NC  ,NA,30,NA,-151.68941622135398,60.03701442776309
172,ADEC SDWIS active PWS source locations,AK2249256   ,RW BIG EDDY RESORT,33375,WL,Well,NC  ,NC  ,NA,70,NA,-151.13175054036998,60.508121484897394
173,ADEC SDWIS active PWS source locations,AK2298103   ,VALDEZ WATER SYSTEM - MAIN,33376,WL,Well,C   ,C   ,NA,4500,NA,-146.36217398282403,61.13725222014491
174,ADEC SDWIS active PWS source locations,AK2226884   ,MSBSD SUTTON ELEM SCHOOL,33380,WL,Well,NTNC,Non-transient non-community,NA,125,NA,-148.87716541052401,61.715464773605795
175,ADEC SDWIS active PWS source locations,AK2227734   ,PIONEER MEADOWS SUBDIVISION,33381,WL,Well,C   ,C   ,NA,435,NA,-149.162703304608,61.572061735621496
176,ADEC SDWIS active PWS source locations,AK2243064   ,KPBSD KALIFORNSKY BEACH ELEM,33395,WL,Well,NTNC,Non-transient non-community,NA,484,NA,-151.14162252605794,60.48680148475258
177,ADEC SDWIS active PWS source locations,AK2270320   ,CHEVAK WATER SYSTEM,33398,WL,Well,C   ,C   ,NA,938,NA,-165.589892080012,61.52653909815821
178,ADEC SDWIS active PWS source locations,AK2270427   ,AC ALASKA COMMERCIAL STORE,33399,WL,Well,NTNC,Non-transient non-community,NA,475,NA,-161.77015205499598,60.7956607686092
179,ADEC SDWIS active PWS source locations,AK2271261   ,LKSD NIGHTMUTE HS & ELEM,33400,WL,Well,NTNC,Non-transient non-community,NA,259,NA,-164.72161150934795,60.47827934451121
180,ADEC SDWIS active PWS source locations,AK2213530   ,PETERS CREEK TERRACE APTS.,33404,WL,Well,C   ,C   ,NA,48,NA,-149.43038319392699,61.4209117012767
181,ADEC SDWIS active PWS source locations,AK2260202   ,CLARKS POINT WATER SYSTEM,33425,WL,Well,C   ,C   ,NA,128,NA,-158.550255148314,58.8350334499273
182,ADEC SDWIS active PWS source locations,AK2280040   ,SHAGELUK WATER SYSTEM,33428,WL,Well,C   ,C   ,NA,60,NA,-159.53107359903598,62.655345949788405
183,ADEC SDWIS active PWS source locations,AK2212924   ,COHOE SUBDIVISION,33429,WL,Well,C   ,C   ,NA,36,NA,-149.785078989972,61.13696966149149
184,ADEC SDWIS active PWS source locations,AK2391972   ,MACLAREN RIVER LODGE,33433,WL,Well,NC  ,NC  ,NA,28,NA,-146.53269248886699,63.11895508043901
185,ADEC SDWIS active PWS source locations,AK2223315   ,SNOWSHOE WATER SYSTEM,33434,WL,Well,C   ,C   ,NA,180,NA,-149.500498273343,61.53256568265171
186,ADEC SDWIS active PWS source locations,AK2226020   ,PALMER WATER SYSTEM,33435,WL,Well,C   ,C   ,NA,8111,NA,-149.14961533049097,61.6076937355256
187,ADEC SDWIS active PWS source locations,AK2210605   ,VALLI VUE S/D WATER SYSTEM,33443,WL,Well,C   ,C   ,NA,794,NA,-149.75894098217202,61.125351666499405
188,ADEC SDWIS active PWS source locations,AK2226460   ,MSBSD BUTTE ELEMENTARY,33450,WL,Well,NTNC,Non-transient non-community,NA,400,NA,-149.00559327924094,61.5355717637242
189,ADEC SDWIS active PWS source locations,AK2240757   ,SEWARD,33451,WL,Well,C   ,C   ,NA,3324,NA,-149.437452318947,60.1304517815343
190,ADEC SDWIS active PWS source locations,AK2240862   ,ALASKAN ANGLER R V RESORT,33452,WL,Well,NC  ,NC  ,NA,75,NA,-151.66665022734395,60.0455084308073
191,ADEC SDWIS active PWS source locations,AK2243030   ,BING BROWNS RESORT,33454,WL,Well,NC  ,NC  ,NA,29,NA,-150.72672556111596,60.527187548826596
192,ADEC SDWIS active PWS source locations,AK2262474   ,LFS NAKNEK MARINE CENTER,33457,WL,Well,NC  ,NC  ,NA,156,NA,-156.950728208555,58.7454657026373
193,ADEC SDWIS active PWS source locations,AK2216198   ,MARANATHA WATER UTILITIES,33491,WL,Well,C   ,C   ,NA,220,NA,-149.532683151,61.361961688283586
194,ADEC SDWIS active PWS source locations,AK2222084   ,BIG LAKE BAPTIST CHURCH,33495,WL,Well,NC  ,NC  ,NA,82,NA,-149.72552330130597,61.5745886430018
195,ADEC SDWIS active PWS source locations,AK2227254   ,MSBSD PIONEER PEAK,33496,WL,Well,NTNC,Non-transient non-community,NA,475,NA,-149.24366332614392,61.6026217203841
196,ADEC SDWIS active PWS source locations,AK2261185   ,SWRSD ALEKNAGIK NORTHSHORE,33499,WL,Well,NTNC,Non-transient non-community,NA,38,NA,-158.625151400667,59.2811263987871
197,ADEC SDWIS active PWS source locations,AK2261208   ,EKUK FISHERIES,33500,WL,Well,NC  ,NC  ,NA,150,NA,-158.561351136417,58.815570449959004
198,ADEC SDWIS active PWS source locations,AK2270150   ,MOUNTAIN VILLAGE WATER SYSTEM,33501,WL,Well,C   ,C   ,NA,887,NA,-163.72372071665197,62.08631533138101
199,ADEC SDWIS active PWS source locations,AK2213336   ,GLENN MULDOON TC,33504,WL,Well,C   ,C   ,NA,354,NA,-149.740053052289,61.2252816631508
200,ADEC SDWIS active PWS source locations,AK2222848   ,ALASKA H2O INC,33507,WL,Well,C   ,C   ,NA,75,NA,-149.54218731482902,61.590587672088596
201,ADEC SDWIS active PWS source locations,AK2226656   ,VALLEY BAPTIST TABERNACLE,33509,WL,Well,NC  ,NC  ,NA,67,NA,-149.270426321876,61.5970117163402
202,ADEC SDWIS active PWS source locations,AK2212819   ,KINGSBERRY HOMEOWNERS ASSOC.,33516,WL,Well,C   ,C   ,NA,50,NA,-149.82492100177,61.154543653863385
203,ADEC SDWIS active PWS source locations,AK2248496   ,KASILOF MERCANTILE,33522,WL,Well,NC  ,NC  ,NA,31,NA,-151.259778414773,60.32120347700669
204,ADEC SDWIS active PWS source locations,AK2271721   ,NIGHTMUTE NEW WATERING POINT,33527,WL,Well,C   ,C   ,NA,243,NA,-164.72072150936697,60.4781293446633
205,ADEC SDWIS active PWS source locations,AK2271874   ,NATIVE VILLAGE OF SLEETMUTE,33528,WL,Well,C   ,C   ,NA,82,NA,-157.175003077936,61.6937104177627
206,ADEC SDWIS active PWS source locations,AK2271983   ,DONLIN GOLD CAMP,33537,WL,Well,NC  ,NC  ,NA,30,NA,-158.217817240036,62.026339219948305
207,ADEC SDWIS active PWS source locations,AK2220723   ,MSBSD TRAPPER CREEK ELEMENTARY,33538,WL,Well,NTNC,Non-transient non-community,NA,34,NA,-150.31680684501202,62.3158184965765
208,ADEC SDWIS active PWS source locations,AK2225398   ,VICTORY BIBLE CAMP RANCH WELL,33540,WL,Well,NC  ,NC  ,NA,95,NA,-147.989803477353,61.8052019144649
209,ADEC SDWIS active PWS source locations,AK2215443   ,ANCHORAGE GOLF COURSE,33548,WL,Well,NC  ,NC  ,NA,308,NA,-149.813691982652,61.126945657474
210,ADEC SDWIS active PWS source locations,AK2227716   ,MANNA BAPTIST CHURCH,33552,WL,Well,NC  ,NC  ,NA,100,NA,-149.19892332477698,61.6002827278869
211,ADEC SDWIS active PWS source locations,AK2280302   ,CROOKED CREEK WATERING POINT,33555,WL,Well,C   ,C   ,NA,147,NA,-158.137481125771,61.86097024752901
212,ADEC SDWIS active PWS source locations,AK2210451   ,RIVIERA TERRACE TC,33556,WL,Well,C   ,C   ,NA,435,NA,-149.77205302784094,61.1909416601393
213,ADEC SDWIS active PWS source locations,AK2211936   ,DEARMOUN II,33557,WL,Well,C   ,C   ,NA,80,NA,-149.81292996040602,61.0949636596597
214,ADEC SDWIS active PWS source locations,AK2223454   ,LITTLE BEAVER CAMP MAIN QTRS,33562,WL,Well,NC  ,NC  ,NA,208,NA,-149.83471329734095,61.57088762531058
215,ADEC SDWIS active PWS source locations,AK2224515   ,RIVERSIDE CAMPER PARK,33563,WL,Well,NC  ,NC  ,NA,29,NA,-149.81229233921903,61.6283516252632
216,ADEC SDWIS active PWS source locations,AK2224581   ,EAST BIG LAKE MALL,33564,WL,Well,NTNC,Non-transient non-community,NA,546,NA,-149.81790227984794,61.54636062966209
217,ADEC SDWIS active PWS source locations,AK2270980   ,LKSD NAPASKIAK Z J WILLIAMS SC,33567,WL,Well,NTNC,Non-transient non-community,NA,161,NA,-161.760241998722,60.7077897787749
218,ADEC SDWIS active PWS source locations,AK2260820   ,NUNAPITCHUK WATER SYSTEM,33583,WL,Well,C   ,C   ,NA,496,NA,-162.45652204727404,60.896839651374194
219,ADEC SDWIS active PWS source locations,AK2262238   ,EGEGIK,33585,WL,Well,C   ,C   ,NA,485,NA,-157.375790883402,58.2100006830201
220,ADEC SDWIS active PWS source locations,AK2270346   ,BETHEL HEIGHTS WATER SYSTEM,33586,WL,Well,C   ,C   ,NA,2228,NA,-161.77633905816,60.801487767070384
221,ADEC SDWIS active PWS source locations,AK2226339   ,FOUR CORNERS LOUNGE,33592,WL,Well,NC  ,NC  ,NA,33,NA,-149.24771732357,61.59911071994011
222,ADEC SDWIS active PWS source locations,AK2260464   ,BBBSD NAKNEK,33597,WL,Well,NTNC,Non-transient non-community,NA,130,NA,-157.00405319842596,58.733600695451806
223,ADEC SDWIS active PWS source locations,AK2241088   ,NIKISKI VILLAGE TC,33606,WL,Well,C   ,C   ,NA,150,NA,-151.332602676412,60.7187614381814
224,ADEC SDWIS active PWS source locations,AK2242610   ,NIKISKI COMMUNITY RECREATION CENTER,33617,WL,Well,NC  ,NC  ,NA,210,NA,-151.38442266573404,60.7047014307784
225,ADEC SDWIS active PWS source locations,AK2223983   ,HILL TIMBER ESTATES,33620,WL,Well,C   ,C   ,NA,120,NA,-149.26208731007802,61.58062171874939
226,ADEC SDWIS active PWS source locations,AK2260040   ,KOLIGANEK WATER SYSTEM,33621,WL,Well,C   ,C   ,NA,170,NA,-157.27880176659795,59.72788056880199
227,ADEC SDWIS active PWS source locations,AK2261232   ,SILVER BAY SEAFOODS - NAKNEK WEST,33622,WL,Well,NC  ,NC  ,NA,347,NA,-157.002231196295,58.729638696064306
228,ADEC SDWIS active PWS source locations,AK2262513   ,SILVER BAY SEAFOODS - WOOD RIVER,33630,WL,Well,NC  ,NC  ,NA,300,NA,-158.44174029037399,59.068306445889505
229,ADEC SDWIS active PWS source locations,AK2218478   ,USAF ELMENDORF- MUNITION INSP,33632,WL,Well,NTNC,Non-transient non-community,NA,30,NA,-149.814405100385,61.29478864652291
230,ADEC SDWIS active PWS source locations,AK2248771   ,PENINSULA FAMILY DENTAL CENTER,33634,WL,Well,NC  ,NC  ,NA,36,NA,-151.16804253720503,60.504531479300795
231,ADEC SDWIS active PWS source locations,AK2211724   ,G A PHILLIPS S/D,33638,WL,Well,C   ,C   ,NA,102,NA,-149.560393123091,61.3229916862408
232,ADEC SDWIS active PWS source locations,AK2214277   ,CARRS CROW CREEK,33642,WL,Well,NC  ,NC  ,NA,60,NA,-149.13447787511902,60.9628367784583
233,ADEC SDWIS active PWS source locations,AK2299001   ,CRBRHA CHITINA HUD HOUSING,33644,WL,Well,C   ,C   ,NA,50,NA,-144.45124320162202,61.508982513743895
234,ADEC SDWIS active PWS source locations,AK2291229   ,VALDEZ SOUTHCENTRAL,33656,WL,Well,C   ,C   ,NA,675,NA,-146.24536297293199,61.12581223984711
235,ADEC SDWIS active PWS source locations,AK2214104   ,LIFE CHURCH,33657,WL,Well,NC  ,NC  ,NA,140,NA,-149.810393970487,61.1094186591412
236,ADEC SDWIS active PWS source locations,AK2240317   ,USFS QUARTZ CREEK CAMPGROUND,33664,WL,Well,NC  ,NC  ,NA,100,NA,-149.728192544038,60.4795317128061
237,ADEC SDWIS active PWS source locations,AK2227474   ,MSBSD COLONY SCHOOLS,33669,WL,Well,NTNC,Non-transient non-community,NA,1961,NA,-149.21666333150495,61.6097417243724
238,ADEC SDWIS active PWS source locations,AK2243983   ,SOLDOTNA ELKS,33677,WL,Well,NC  ,NC  ,NA,150,NA,-151.07743854079104,60.50700149371348
239,ADEC SDWIS active PWS source locations,AK2247474   ,RESURRECTION BAY CONDOS,33679,WL,Well,NC  ,NC  ,NA,58,NA,-149.44310328050796,60.07066378436429
240,ADEC SDWIS active PWS source locations,AK2262660   ,D & D RESTAURANT,33680,WL,Well,NC  ,NC  ,NA,35,NA,-157.01931019394297,58.7274156936316
241,ADEC SDWIS active PWS source locations,AK2320751   ,ALYESKA MCCF #2 CAMP,33690,WL,Well,NTNC,Non-transient non-community,NA,51,NA,-148.82862064576003,68.83889631448807
242,ADEC SDWIS active PWS source locations,AK2245862   ,SOLDOTNA CENTENNIAL #5,33698,WL,Well,NC  ,NC  ,NA,200,NA,-151.09010352146697,60.4781754936231
243,ADEC SDWIS active PWS source locations,AK2242636   ,NIKISKI POOL,33707,WL,Well,NC  ,NC  ,NA,160,NA,-151.384342665864,60.7048924307782
244,ADEC SDWIS active PWS source locations,AK2271999   ,BETHEL-CITY S/D WATER,33709,WL,Well,C   ,C   ,NA,1660,NA,-161.782622051881,60.79290476693021
245,ADEC SDWIS active PWS source locations,AK2224028   ,FORTY NINER HOMEOWNERS ASSOC.,33713,WL,Well,C   ,C   ,NA,39,NA,-149.63183130502202,61.57830265815081
246,ADEC SDWIS active PWS source locations,AK2213598   ,ALPINE WOODS WATER SYSTEM,33720,WL,Well,C   ,C   ,NA,200,NA,-149.762102975184,61.115368666626196
247,ADEC SDWIS active PWS source locations,AK2213726   ,BROWN BEAR SALOON,33721,WL,Well,NC  ,NC  ,NA,54,NA,-149.49833288807906,60.9857117178479
248,ADEC SDWIS active PWS source locations,AK2244808   ,ALPINE INN,33723,WL,Well,NC  ,NC  ,NA,30,NA,-149.82140154968803,60.48960969714269
249,ADEC SDWIS active PWS source locations,AK2222806   ,SACRED HEART PARISH,33729,WL,Well,NTNC,Non-transient non-community,NA,210,NA,-149.41911331455796,61.5886116924381
250,ADEC SDWIS active PWS source locations,AK2224557   ,MEADOW LAKES CENTER,33730,WL,Well,NTNC,Non-transient non-community,NA,276,NA,-149.63310330795798,61.58238165767929
251,ADEC SDWIS active PWS source locations,AK2213904   ,ASD RAVENWOOD SCHOOL,33734,WL,Well,NTNC,Non-transient non-community,NA,472,NA,-149.50340811111099,61.305285696690895
252,ADEC SDWIS active PWS source locations,AK2210639   ,EAST 98TH AVENUE WELL HOA,33741,WL,Well,C   ,C   ,NA,76,NA,-149.787692985677,61.130851661459495
253,ADEC SDWIS active PWS source locations,AK2292330   ,KENNY LAKE FIRE HALL,33744,WL,Well,C   ,C   ,NA,200,NA,-145.013134375744,61.72631141018821
254,ADEC SDWIS active PWS source locations,AK2222783   ,FAIRVIEW MARKET PLACE,33756,WL,Well,NC  ,NC  ,NA,1113,NA,-149.31967430066598,61.5682297100735
255,ADEC SDWIS active PWS source locations,AK2247474   ,RESURRECTION BAY CONDOS,33758,WL,Well,NC  ,NC  ,NA,58,NA,-149.44298228050198,60.070651784384395
256,ADEC SDWIS active PWS source locations,AK2213530   ,PETERS CREEK TERRACE APTS.,33761,WL,Well,C   ,C   ,NA,48,NA,-149.43037319402697,61.42105170126939
257,ADEC SDWIS active PWS source locations,AK2223894   ,SILVER FOX INN,33784,WL,Well,NC  ,NC  ,NA,50,NA,-149.66216630105,61.57325865349319
258,ADEC SDWIS active PWS source locations,AK2223983   ,HILL TIMBER ESTATES,33785,WL,Well,C   ,C   ,NA,120,NA,-149.26216131005,61.5805837187396
259,ADEC SDWIS active PWS source locations,AK2271983   ,DONLIN GOLD CAMP,33789,WL,Well,NC  ,NC  ,NA,30,NA,-158.21870423995693,62.02633021980531
260,ADEC SDWIS active PWS source locations,AK2210574   ,TOTEM TRAILER TOWN TC,33792,WL,Well,C   ,C   ,NA,480,NA,-149.80424304411,61.21468165335579
261,ADEC SDWIS active PWS source locations,AK2298002   ,MOUNTAIN VIEW APARTMENTS,33796,WL,Well,C   ,C   ,NA,48,NA,-146.171066938662,61.078447254548095
262,ADEC SDWIS active PWS source locations,AK2298103   ,VALDEZ WATER SYSTEM - MAIN,33797,WL,Well,C   ,C   ,NA,4500,NA,-146.35937998275304,61.1372142206033
263,ADEC SDWIS active PWS source locations,AK2214049   ,ANCHORAGE GRACE CHURCH 1,33803,WL,Well,NTNC,Non-transient non-community,NA,585,NA,-149.81830596970698,61.10842965791599
264,ADEC SDWIS active PWS source locations,AK2222995   ,LDS WILLOW CHAPEL,33810,WL,Well,NC  ,NC  ,NA,50,NA,-150.023968400761,61.71664458468809
265,ADEC SDWIS active PWS source locations,AK2292291   ,TONSINA LODGE COMPLEX,33816,WL,Well,NC  ,NC  ,NA,38,NA,-145.179963333293,61.66229238601531
266,ADEC SDWIS active PWS source locations,AK2244662   ,SAVE U MORE,33819,WL,Well,NC  ,NC  ,NA,123,NA,-151.15604752849904,60.4909694821498
267,ADEC SDWIS active PWS source locations,AK2291813   ,BLM GLENNALLEN LOWER WELL,33822,WL,Well,NC  ,NC  ,NA,27,NA,-145.546300674063,62.1093753017472
268,ADEC SDWIS active PWS source locations,AK2262902   ,BRISTOL BAY NATIVE ASSOC.,33827,WL,Well,NTNC,Non-transient non-community,NA,120,NA,-158.492621272918,59.0447704401603
269,ADEC SDWIS active PWS source locations,AK2212916   ,SKY RANCH ESTATES #2 LOWER WELL,33831,WL,Well,C   ,C   ,NA,72,NA,-149.78694597484997,61.1152966625829
270,ADEC SDWIS active PWS source locations,AK2214489   ,TWIN PEAKS TREATS LLC.,33854,WL,Well,NC  ,NC  ,NA,27,NA,-149.17902319240196,61.4160017427778
271,ADEC SDWIS active PWS source locations,AK2210702   ,ANCHORAGE JUNIOR ACADEMY,33855,WL,Well,NTNC,Non-transient non-community,NA,42,NA,-149.778792980692,61.12355166338
272,ADEC SDWIS active PWS source locations,AK2270312   ,CITY OF HOOPER BAY,33860,WL,Well,C   ,C   ,NA,1375,NA,-166.09642201238304,61.53081901926849
273,ADEC SDWIS active PWS source locations,AK2224060   ,NORTH BOWL,33864,WL,Well,NC  ,NC  ,NA,220,NA,-149.368253311853,61.58426170107269
274,ADEC SDWIS active PWS source locations,AK2225165   ,MSBSD KNIK-GOOSE BAY ELEM.,33865,WL,Well,NTNC,Non-transient non-community,NA,897,NA,-149.61470627832696,61.54106866335829
275,ADEC SDWIS active PWS source locations,AK2244125   ,KPBSD NORTH STAR ELEMENTARY,33871,WL,Well,NTNC,Non-transient non-community,NA,448,NA,-151.29425663841698,60.6608364483303
276,ADEC SDWIS active PWS source locations,AK2224214   ,NORTHERN LIGHTS TERRACE,33874,WL,Well,C   ,C   ,NA,168,NA,-149.64541525540798,61.50967766033759
277,ADEC SDWIS active PWS source locations,AK2243705   ,NIKKO GARDEN,33876,WL,Well,NC  ,NC  ,NA,100,NA,-151.078851538685,60.503863493698084
278,ADEC SDWIS active PWS source locations,AK2243991   ,NIKISKI CHURCH OF THE NAZARENE,33877,WL,Well,NC  ,NC  ,NA,100,NA,-151.344322616427,60.6297014423842
279,ADEC SDWIS active PWS source locations,AK2245935   ,SOLID ROCK LAKESIDE CENTER,33878,WL,Well,NC  ,NC  ,NA,205,NA,-150.96889854139002,60.504501511350796
280,ADEC SDWIS active PWS source locations,AK2215435   ,USFS GLACIER RANGER DISTRICT,33883,WL,Well,NC  ,NC  ,NA,35,NA,-149.17179386252698,60.94486777351328
281,ADEC SDWIS active PWS source locations,AK2248218   ,HILCORP TRADING BAY,33895,WL,Well,NC  ,NC  ,NA,93,NA,-151.79152272865196,60.81332135750659
282,ADEC SDWIS active PWS source locations,AK2224523   ,FIRST PRESBYTERIAN CHURCH,33900,WL,Well,NC  ,NC  ,NA,200,NA,-149.41577331474696,61.5888316929729
283,ADEC SDWIS active PWS source locations,AK2242393   ,DIRTY SKILLET AND BEAR CREEK CABINS,33901,WL,Well,NC  ,NC  ,NA,54,NA,-149.621472841268,60.9193117020584
284,ADEC SDWIS active PWS source locations,AK2244159   ,SEWARD MARINE INDUSTRIAL CENT,33905,WL,Well,C   ,C   ,NA,545,NA,-149.33142829843203,60.097280800580904
285,ADEC SDWIS active PWS source locations,AK2271148   ,BETHEL TRAILER COURT,33914,WL,Well,C   ,C   ,NA,446,NA,-161.80030204342904,60.782829765155704
286,ADEC SDWIS active PWS source locations,AK2210419   ,PENLAND PARK MHP,33932,WL,Well,C   ,C   ,NA,993,NA,-149.81982304457597,61.21560765075309
287,ADEC SDWIS active PWS source locations,AK2271981   ,FAA BETHEL WELL,33942,WL,Well,NC  ,NC  ,NA,25,NA,-161.84502204023303,60.785159757939006
288,ADEC SDWIS active PWS source locations,AK2224337   ,SHEENA MAY ESTATES,33950,WL,Well,C   ,C   ,NA,74,NA,-149.33923233598202,61.617232703744996
289,ADEC SDWIS active PWS source locations,AK2210451   ,RIVIERA TERRACE TC,33961,WL,Well,C   ,C   ,NA,435,NA,-149.77184302824196,61.191511660136904
290,ADEC SDWIS active PWS source locations,AK2270346   ,BETHEL HEIGHTS WATER SYSTEM,33977,WL,Well,C   ,C   ,NA,2228,NA,-161.77647205786,60.80104976709248
291,ADEC SDWIS active PWS source locations,AK2270469   ,WILLOW TREE APARTMENTS,33978,WL,Well,C   ,C   ,NA,224,NA,-161.777898057552,60.80080876689319
292,ADEC SDWIS active PWS source locations,AK2291261   ,BLACKBURN PLACE APARTMENTS,33982,WL,Well,NC  ,NC  ,NA,39,NA,-145.53375767400297,62.10966930381349
293,ADEC SDWIS active PWS source locations,AK2223145   ,SCOTWOOD ESTATES WATER SYSTEM,33985,WL,Well,C   ,C   ,NA,90,NA,-149.41055334324997,61.6280916913263
294,ADEC SDWIS active PWS source locations,AK2224751   ,MONTANA CREEK BAPTIST CHURCH,33986,WL,Well,NC  ,NC  ,NA,80,NA,-150.03860370759799,62.1297215551
295,ADEC SDWIS active PWS source locations,AK2224769   ,CAMP LA DA SA,33987,WL,Well,NC  ,NC  ,NA,32,NA,-150.018322399899,61.7153575857016
296,ADEC SDWIS active PWS source locations,AK2224840   ,FISHHOOK FOOD MART,33989,WL,Well,NC  ,NC  ,NA,304,NA,-149.395692333206,61.61406869466409
297,ADEC SDWIS active PWS source locations,AK2243771   ,GREATLAND VILLAGE PARK,34000,WL,Well,C   ,C   ,NA,30,NA,-151.33216562664998,60.64456944332749
298,ADEC SDWIS active PWS source locations,AK2210778   ,TROLL KNOLL S/D,34005,WL,Well,C   ,C   ,NA,99,NA,-149.43945318308798,61.4058317007509
299,ADEC SDWIS active PWS source locations,AK2292186   ,CRBRHA MCKINLEY BLDG WATER SUPPLY,34014,WL,Well,C   ,C   ,NA,30,NA,-145.33058357178098,61.980113344417205
300,ADEC SDWIS active PWS source locations,AK2244298   ,RIVER QUEST PHASE 1 SUBDIVISION,34018,WL,Well,NC  ,NC  ,NA,227,NA,-151.10991354404396,60.5129604880842
301,ADEC SDWIS active PWS source locations,AK2245105   ,SOLDOTNA CHURCH OF CHRIST,34019,WL,Well,NC  ,NC  ,NA,100,NA,-150.99625353888598,60.5015625071458
302,ADEC SDWIS active PWS source locations,AK2213514   ,HILLSIDE BAPTIST CHURCH,34024,WL,Well,NC  ,NC  ,NA,30,NA,-149.784970979699,61.1222276624584
303,ADEC SDWIS active PWS source locations,AK2213603   ,LAKE O THE HILLS EAST,34026,WL,Well,C   ,C   ,NA,56,NA,-149.751202976762,61.11745766826799
304,ADEC SDWIS active PWS source locations,AK2223713   ,LAVERN GRIFFIN YOUTH CAMP,34027,WL,Well,NC  ,NC  ,NA,120,NA,-149.56454032742502,61.6082906672792
305,ADEC SDWIS active PWS source locations,AK2225384   ,WASILLA SEVENTH DAY ADVENTIST,34031,WL,Well,NC  ,NC  ,NA,102,NA,-149.44971932532698,61.603866686434294
306,ADEC SDWIS active PWS source locations,AK2244793   ,THREE BEARS  NINILCHIK #55,34032,WL,Well,NC  ,NC  ,NA,108,NA,-151.67769222408995,60.040841429368285
307,ADEC SDWIS active PWS source locations,AK2245804   ,COLLEGE HEIGHTS BAPTIST CHURCH,34033,WL,Well,NC  ,NC  ,NA,240,NA,-151.1495645203479,60.478416484042995
308,ADEC SDWIS active PWS source locations,AK2271106   ,BETHEL NATIVE CORP OFFICES,34035,WL,Well,NTNC,Non-transient non-community,NA,99,NA,-161.768822055888,60.7968097687044
309,ADEC SDWIS active PWS source locations,AK2245846   ,SOLDOTNA SWIFT WATER #4,34041,WL,Well,NC  ,NC  ,NA,200,NA,-151.03214152528503,60.4821105026814
310,ADEC SDWIS active PWS source locations,AK2270972   ,LKSD MEKORYUK NUNIVAARMIUT SC,34050,WL,Well,NTNC,Non-transient non-community,NA,67,NA,-166.189156258743,60.386681131136186
311,ADEC SDWIS active PWS source locations,AK2333314   ,COLDFOOT CAFE,34055,WL,Well,NC  ,NC  ,NA,120,NA,-150.17643657983402,67.25229918181302
312,ADEC SDWIS active PWS source locations,AK2213564   ,SPRING FOREST HOMEOWNERS ASSN.,34056,WL,Well,C   ,C   ,NA,94,NA,-149.77341098381498,61.1279446639743
313,ADEC SDWIS active PWS source locations,AK2243103   ,COLLEGE PARK HOME OWNERS ASSOC,34062,WL,Well,C   ,C   ,NA,85,NA,-151.157242524563,60.48505148235859
314,ADEC SDWIS active PWS source locations,AK2213409   ,DOUBLE MUSKY INN,34071,WL,Well,NC  ,NC  ,NA,178,NA,-149.13714587709504,60.9657327778436
315,ADEC SDWIS active PWS source locations,AK2270215   ,TOKSOOK BAY WATER SYSTEM,34074,WL,Well,C   ,C   ,NA,661,NA,-165.11642149952698,60.5431192772112
316,ADEC SDWIS active PWS source locations,AK2271059   ,PLATINUM CITY WATER SYSTEM,34108,WL,Well,C   ,C   ,NA,51,NA,-161.812680959457,59.006799937876
317,ADEC SDWIS active PWS source locations,AK2223080   ,ROADSIDE INN,34109,WL,Well,NC  ,NC  ,NA,75,NA,-149.64485330433297,61.577541656060795
318,ADEC SDWIS active PWS source locations,AK2292705   ,COPPER RAIL DEPOT SALOON,34114,WL,Well,NC  ,NC  ,NA,35,NA,-145.30010755105502,61.9533773508796
319,ADEC SDWIS active PWS source locations,AK2291782   ,VALDEZ SOFTBALL FIELDS,34119,WL,Well,NC  ,NC  ,NA,200,NA,-146.22231495472002,61.100254245000706
320,ADEC SDWIS active PWS source locations,AK2224696   ,WHITE FIELDS CHURCH,34122,WL,Well,NC  ,NC  ,NA,81,NA,-149.32872331253006,61.584741707537894
321,ADEC SDWIS active PWS source locations,AK2224183   ,WILLOW COMMUNITY CENTER,34123,WL,Well,NC  ,NC  ,NA,28,NA,-150.051635421,61.74483957828339
322,ADEC SDWIS active PWS source locations,AK2243006   ,COPPER CENTER,34127,WL,Well,NTNC,Non-transient non-community,NA,175,NA,-151.15787252957796,60.492661481741585
323,ADEC SDWIS active PWS source locations,AK2223315   ,SNOWSHOE WATER SYSTEM,34129,WL,Well,C   ,C   ,NA,180,NA,-149.50040827341402,61.53266368266019
324,ADEC SDWIS active PWS source locations,AK2223315   ,SNOWSHOE WATER SYSTEM,34130,WL,Well,C   ,C   ,NA,180,NA,-149.50048527340599,61.532653682648196
325,ADEC SDWIS active PWS source locations,AK2210540   ,PUFFIN INN,34133,WL,Well,NC  ,NC  ,NA,50,NA,-149.938503018522,61.180511633661496
326,ADEC SDWIS active PWS source locations,AK2224913   ,LITTLE SUSITNA CG HOUSTON,34134,WL,Well,NC  ,NC  ,NA,25,NA,-149.79810634082003,61.6303226274671
327,ADEC SDWIS active PWS source locations,AK2225032   ,TALKEETNA WATER SYSTEM,34135,WL,Well,C   ,C   ,NA,1850,NA,-150.11516385507198,62.32471152949359
328,ADEC SDWIS active PWS source locations,AK2243666   ,KASILOF RIVERVIEW,34136,WL,Well,NC  ,NC  ,NA,127,NA,-151.26197241265,60.318021476870996
329,ADEC SDWIS active PWS source locations,AK2245325   ,GRACE EVANGELICAL LUTHERAN,34137,WL,Well,NTNC,Non-transient non-community,NA,110,NA,-151.16193254002502,60.508591480008704
330,ADEC SDWIS active PWS source locations,AK2291229   ,VALDEZ SOUTHCENTRAL,34138,WL,Well,C   ,C   ,NA,675,NA,-146.24370697290098,61.12580724011781
331,ADEC SDWIS active PWS source locations,AK2213336   ,GLENN MULDOON TC,34151,WL,Well,C   ,C   ,NA,354,NA,-149.740103052324,61.22533166313951
332,ADEC SDWIS active PWS source locations,AK2243080   ,KENAI PERFORMERS,34154,WL,Well,NC  ,NC  ,NA,214,NA,-151.15242252423903,60.48440148317789
333,ADEC SDWIS active PWS source locations,AK2244997   ,OFFSHORE SYSTEMS KENAI,34155,WL,Well,NC  ,NC  ,NA,74,NA,-151.30730269114397,60.739761440830904
334,ADEC SDWIS active PWS source locations,AK2270320   ,CHEVAK WATER SYSTEM,34157,WL,Well,C   ,C   ,NA,938,NA,-165.58855208074,61.527339098279306
335,ADEC SDWIS active PWS source locations,AK2291407   ,CRSD GLENNALLEN HIGH SCHOOL,34159,WL,Well,NTNC,Non-transient non-community,NA,396,NA,-145.52715367674597,62.1134923047045
336,ADEC SDWIS active PWS source locations,AK2225653   ,WILLOW UNITED METHODIST CHURCH,34163,WL,Well,NC  ,NC  ,NA,46,NA,-150.030808399593,61.7151765836587
337,ADEC SDWIS active PWS source locations,AK2225697   ,SCHWABS ALASKA,34164,WL,Well,NC  ,NC  ,NA,31,NA,-149.34475231332,61.586015704822906
338,ADEC SDWIS active PWS source locations,AK2227262   ,MOM & POPS 4 CORNERS PLAZA,34165,WL,Well,NC  ,NC  ,NA,270,NA,-149.24218332395998,61.599591720819305
339,ADEC SDWIS active PWS source locations,AK2227513   ,ALASKA HEALING HEARTS WARRIOR LODGE,34167,WL,Well,NC  ,NC  ,NA,30,NA,-149.040728401863,61.7047997473302
340,ADEC SDWIS active PWS source locations,AK2226452   ,MSBSD SNOWSHOE ELEMENTARY,34175,WL,Well,NTNC,Non-transient non-community,NA,427,NA,-149.50294327138698,61.529881682421994
341,ADEC SDWIS active PWS source locations,AK2211423   ,JBER-ELMENDORF,34182,WL,Well,C   ,C   ,NA,30003,NA,-149.741161060799,61.2374096621893
342,ADEC SDWIS active PWS source locations,AK2218475   ,USAF JBER ELMENDORF - HILLBERG SKI AREA,34183,WL,Well,NC  ,NC  ,NA,200,NA,-149.82035708642803,61.27511164682201
343,ADEC SDWIS active PWS source locations,AK2220375   ,EVERETTS AT MAT SU RESORT,34189,WL,Well,NTNC,Non-transient non-community,NA,355,NA,-149.40371231375798,61.5873176950513
344,ADEC SDWIS active PWS source locations,AK2212762   ,OUR REDEEMER LUTHERAN CHURCH,34201,WL,Well,NC  ,NC  ,NA,105,NA,-149.487680169995,61.388071693984095
345,ADEC SDWIS active PWS source locations,AK2227701   ,AMERICAN LEGION POST 15,34203,WL,Well,NC  ,NC  ,NA,27,NA,-149.144423300446,61.56613173899901
346,ADEC SDWIS active PWS source locations,AK2218579   ,BLM CAMPBELL CREEK ENVIRONMENTAL ED CNTR,34207,WL,Well,NC  ,NC  ,NA,55,NA,-149.778041009081,61.164226660883394
347,ADEC SDWIS active PWS source locations,AK2260309   ,UNALASKA WATER SYSTEM,34210,WL,Well,C   ,C   ,NA,9400,NA,-166.51350005618795,53.862206820477205
348,ADEC SDWIS active PWS source locations,AK2211952   ,WHITTIER WATER SYSTEM,34213,WL,Well,C   ,C   ,NA,650,NA,-148.68975174821898,60.7741828623119
349,ADEC SDWIS active PWS source locations,AK2225967   ,MSBSD MEADOW LAKES ELEMENTARY,34224,WL,Well,NTNC,Non-transient non-community,NA,515,NA,-149.623143328755,61.6109616574758
350,ADEC SDWIS active PWS source locations,AK2248894   ,BIG JOHN'S - K-BEACH,34231,WL,Well,NC  ,NC  ,NA,209,NA,-151.15750252617596,60.4875014821508
351,ADEC SDWIS active PWS source locations,AK2227547   ,MATANUSKA HEIGHTS DUCHESS,34237,WL,Well,C   ,C   ,NA,36,NA,-149.251720304772,61.573174720924506
352,ADEC SDWIS active PWS source locations,AK2227482   ,PALMER GOLF COURSE CLUBHOUSE,34242,WL,Well,NC  ,NC  ,NA,160,NA,-149.083833314343,61.58481174778029
353,ADEC SDWIS active PWS source locations,AK2240896   ,HOME PORT CONDO ASSOC. INC.,34248,WL,Well,NC  ,NC  ,NA,221,NA,-151.255772552478,60.53054146341519
354,ADEC SDWIS active PWS source locations,AK2249434   ,WILLOWBROOK NORTH,34249,WL,Well,C   ,C   ,NA,150,NA,-151.175092545487,60.51727647730189
355,ADEC SDWIS active PWS source locations,AK2226410   ,IRIS CIRCLE WATER CORPORATION,34250,WL,Well,C   ,C   ,NA,37,NA,-149.150453306766,61.5749317374535
356,ADEC SDWIS active PWS source locations,AK2261282   ,BBAHC - KANAKANAK HOSPITAL,34252,WL,Well,C   ,C   ,NA,305,NA,-158.54254224280197,58.9991274365485
357,ADEC SDWIS active PWS source locations,AK2227432   ,PALMER FAMILY CHURCH OF THE NAZARENE,34256,WL,Well,NC  ,NC  ,NA,50,NA,-149.147716325701,61.6010667362557
358,ADEC SDWIS active PWS source locations,AK2260553   ,USNPS KATMAI BROOKS CAMP,34257,WL,Well,NC  ,NC  ,NA,350,NA,-155.780371171477,58.55779089766399
359,ADEC SDWIS active PWS source locations,AK2221208   ,WASILLA WEST SUBDIVISION,34263,WL,Well,C   ,C   ,NA,200,NA,-149.55403331016302,61.58430167054549
360,ADEC SDWIS active PWS source locations,AK2226321   ,SHEEP MOUNTAIN LODGE,34265,WL,Well,NC  ,NC  ,NA,71,NA,-147.49850348026402,61.81217599517991
361,ADEC SDWIS active PWS source locations,AK2218593   ,DIV OF PARKS INDIAN VALLEY,34291,WL,Well,NC  ,NC  ,NA,100,NA,-149.495982898225,61.00039471729829
362,ADEC SDWIS active PWS source locations,AK2249133   ,WILDMAN'S,34296,WL,Well,NC  ,NC  ,NA,108,NA,-149.800925553445,60.4949367001023
363,ADEC SDWIS active PWS source locations,AK2262068   ,FISHERMANS  BAR,34302,WL,Well,NC  ,NC  ,NA,50,NA,-157.02055619375298,58.7272206934569
364,ADEC SDWIS active PWS source locations,AK2212021   ,GIRDWOOD WATER SYSTEM,34312,WL,Well,C   ,C   ,NA,2625,NA,-149.10641688359905,60.974906782269095
365,ADEC SDWIS active PWS source locations,AK2225502   ,SPEEDWAY PARKS/PITMAN,34315,WL,Well,NC  ,NC  ,NA,1111,NA,-149.631873307943,61.5823436578838
366,ADEC SDWIS active PWS source locations,AK2240985   ,VAGABOND INN,34316,WL,Well,NC  ,NC  ,NA,50,NA,-151.263167543617,60.517420463118384
367,ADEC SDWIS active PWS source locations,AK2211431   ,UNIFIED ALASKAN UTILITIES-HOMESTEAD DIV.,34325,WL,Well,C   ,C   ,NA,708,NA,-149.42433118727203,61.411509702866795
368,ADEC SDWIS active PWS source locations,AK2260503   ,USAF KING SALMON,34327,WL,Well,NC  ,NC  ,NA,39,NA,-156.67024119634695,58.69310075005011
369,ADEC SDWIS active PWS source locations,AK2227204   ,UNIFIED ALASKAN UTILITIES MIDTOWN EST,34343,WL,Well,C   ,C   ,NA,495,NA,-149.221857328839,61.6061167237478
370,ADEC SDWIS active PWS source locations,AK2211130   ,TRAILS END MHP,34346,WL,Well,C   ,C   ,NA,100,NA,-149.79235505057798,61.2236966547147
371,ADEC SDWIS active PWS source locations,AK2225728   ,TALKEETNA ALASKAN LODGE,34347,WL,Well,NC  ,NC  ,NA,884,NA,-150.09392384201902,62.307291534178596
372,ADEC SDWIS active PWS source locations,AK2260325   ,TOGIAK WATER SYSTEM,34357,WL,Well,C   ,C   ,NA,910,NA,-160.41659112498095,59.06435014415992
373,ADEC SDWIS active PWS source locations,AK2241054   ,SOLDOTNA,34361,WL,Well,C   ,C   ,NA,4807,NA,-151.07332653374098,60.4962134951038
374,ADEC SDWIS active PWS source locations,AK2218425   ,PETERS CREEK BAPTIST CHURCH,34366,WL,Well,NC  ,NC  ,NA,40,NA,-149.44233318807602,61.41286169983139
375,ADEC SDWIS active PWS source locations,AK2260197   ,DILLINGHAM WATER SYSTEM,34372,WL,Well,C   ,C   ,NA,2419,NA,-158.465911273974,59.043110444407205
376,ADEC SDWIS active PWS source locations,AK2261274   ,TRIDENT SEAFOODS INC. NAKNEK,34374,WL,Well,NC  ,NC  ,NA,525,NA,-157.00862219498097,58.7280406952183
377,ADEC SDWIS active PWS source locations,AK2211813   ,SKY RANCH ESTATES #1 UPPER WELL,34379,WL,Well,C   ,C   ,NA,75,NA,-149.781831975002,61.11542966340759
378,ADEC SDWIS active PWS source locations,AK2242270   ,USFS RUSSIAN RIVER,34381,WL,Well,NC  ,NC  ,NA,30,NA,-149.97336954474298,60.4848726729593
379,ADEC SDWIS active PWS source locations,AK2220422   ,KINGS LAKE CAMP WELL #1,34383,WL,Well,NC  ,NC  ,NA,211,NA,-149.36573533765304,61.61984369922129
380,ADEC SDWIS active PWS source locations,AK2260074   ,SAINT GEORGE WATER SYSTEM,34386,WL,Well,C   ,C   ,NA,65,NA,-169.53452877952697,56.5956660908074
381,ADEC SDWIS active PWS source locations,AK2260414   ,COLD BAY,34387,WL,Well,C   ,C   ,NA,182,NA,-162.71119000078,55.202905188241104
382,ADEC SDWIS active PWS source locations,AK2261606   ,RAINBOW KING LODGE,34388,WL,Well,NC  ,NC  ,NA,55,NA,-154.830511925022,59.75214095087391
383,ADEC SDWIS active PWS source locations,AK2240862   ,ALASKAN ANGLER R V RESORT,34393,WL,Well,NC  ,NC  ,NA,75,NA,-151.66414822649,60.04406843130539
384,ADEC SDWIS active PWS source locations,AK2260464   ,BBBSD NAKNEK,34396,WL,Well,NTNC,Non-transient non-community,NA,130,NA,-157.004277198443,58.733654695412895
385,ADEC SDWIS active PWS source locations,AK2212128   ,"GOLDEN NUGGET RV PARK, MALASPINA MHP",34397,WL,Well,C   ,C   ,NA,600,NA,-149.79915303885994,61.207111654674904
386,ADEC SDWIS active PWS source locations,AK2218558   ,CHUGIAK SEMINARY BUILDING,34404,WL,Well,NC  ,NC  ,NA,104,NA,-149.53944315532502,61.368141686782096
387,ADEC SDWIS active PWS source locations,AK2240210   ,USFS COOPER CREEK #2 NORTH,34406,WL,Well,NC  ,NC  ,NA,25,NA,-149.88887854556503,60.48456068659259
388,ADEC SDWIS active PWS source locations,AK2226143   ,MOUNTAIN VIEW RV PARK,34411,WL,Well,NC  ,NC  ,NA,60,NA,-149.02539632254602,61.5956597567054
389,ADEC SDWIS active PWS source locations,AK2260066   ,NEWHALEN WATER SYSTEM,34423,WL,Well,C   ,C   ,NA,80,NA,-154.89849190354602,59.72282094246161
390,ADEC SDWIS active PWS source locations,AK2260074   ,SAINT GEORGE WATER SYSTEM,34424,WL,Well,C   ,C   ,NA,65,NA,-169.53269377997498,56.596063091009704
391,ADEC SDWIS active PWS source locations,AK2226020   ,PALMER WATER SYSTEM,34430,WL,Well,C   ,C   ,NA,8111,NA,-149.096574315006,61.585836745621705
392,ADEC SDWIS active PWS source locations,AK2211952   ,WHITTIER WATER SYSTEM,34437,WL,Well,C   ,C   ,NA,650,NA,-148.686643748292,60.77427886281
393,ADEC SDWIS active PWS source locations,AK2249816   ,INLET VIEW RESTAURANT & BAR,34439,WL,Well,NC  ,NC  ,NA,51,NA,-151.67080022685093,60.04489943018749
394,ADEC SDWIS active PWS source locations,AK2241177   ,USFWS KNWR RUSSIAN RIVER FERRY,34460,WL,Well,NC  ,NC  ,NA,25,NA,-150.008785544603,60.48533666722349
395,ADEC SDWIS active PWS source locations,AK2211724   ,G A PHILLIPS S/D,34469,WL,Well,C   ,C   ,NA,102,NA,-149.56051312308998,61.3229916862212
396,ADEC SDWIS active PWS source locations,AK2211033   ,ASD O MALLEY ELEMENTARY SCH,34472,WL,Well,NTNC,Non-transient non-community,NA,370,NA,-149.76768497917496,61.12119166534199
397,ADEC SDWIS active PWS source locations,AK2211669   ,HOMESTEAD HILLS,34487,WL,Well,C   ,C   ,NA,50,NA,-149.80003897673703,61.11822466026089
398,ADEC SDWIS active PWS source locations,AK2212039   ,DOYON UTILITIES JBER - RICHARDSON,34492,WL,Well,C   ,C   ,NA,20284,NA,-149.73284306225798,61.239351663422596
399,ADEC SDWIS active PWS source locations,AK2227343   ,TURNERS CORNER,34494,WL,Well,NC  ,NC  ,NA,406,NA,-149.24127738672902,61.6859237154989
400,ADEC SDWIS active PWS source locations,AK2227474   ,MSBSD COLONY SCHOOLS,34495,WL,Well,NTNC,Non-transient non-community,NA,1961,NA,-149.21565333143994,61.6096417245448
401,ADEC SDWIS active PWS source locations,AK2227212   ,HERITAGE PARK,34516,WL,Well,C   ,C   ,NA,8,NA,-149.11288924384397,61.48725474914049
402,ADEC SDWIS active PWS source locations,AK2227220   ,CAMWELL ON THE GREEN (MHP),34517,WL,Well,C   ,C   ,NA,33,NA,-149.099523312125,61.58188174538579
403,ADEC SDWIS active PWS source locations,AK2227327   ,MSBSD FINGER LAKE ELEMENTARY,34518,WL,Well,NTNC,Non-transient non-community,NA,445,NA,-149.30493333069103,61.6095517098722
404,ADEC SDWIS active PWS source locations,AK2227149   ,WILDROSE CIRCLE,34521,WL,Well,C   ,C   ,NA,30,NA,-149.15036830797803,61.5766077373618
405,ADEC SDWIS active PWS source locations,AK2250265   ,BELLS FLATS,34532,WL,Well,NC  ,NC  ,NA,150,NA,-152.57848083789702,57.70151145137319
406,ADEC SDWIS active PWS source locations,AK2212039   ,DOYON UTILITIES JBER - RICHARDSON,34543,WL,Well,C   ,C   ,NA,20284,NA,-149.72489306503996,61.2431816644744
407,ADEC SDWIS active PWS source locations,AK2241800   ,SOLDOTNA SWIFT WATER #3,34554,WL,Well,NC  ,NC  ,NA,100,NA,-151.03990452533995,60.48243950141029
408,ADEC SDWIS active PWS source locations,AK2211164   ,COUNTRY LANE APARTMENTS,34556,WL,Well,C   ,C   ,NA,60,NA,-149.867525020498,61.1820686451374
409,ADEC SDWIS active PWS source locations,AK2249086   ,"SEWARD WINDSONG LODGE, WELL #1",34559,WL,Well,NC  ,NC  ,NA,241,NA,-149.433822333504,60.153001780706795
410,ADEC SDWIS active PWS source locations,AK2260309   ,UNALASKA WATER SYSTEM,34562,WL,Well,C   ,C   ,NA,9400,NA,-166.50892405549803,53.858917821453396
411,ADEC SDWIS active PWS source locations,AK2249117   ,TRINITY CHRISTIAN CENTER,34573,WL,Well,NC  ,NC  ,NA,75,NA,-151.08007255418798,60.527311491917395
412,ADEC SDWIS active PWS source locations,AK2260325   ,TOGIAK WATER SYSTEM,34579,WL,Well,C   ,C   ,NA,910,NA,-160.410331125262,59.0638601451596
413,ADEC SDWIS active PWS source locations,AK2261143   ,"NORTH PACIFIC SEAFOODS, PEDERSON POINT",34581,WL,Well,NC  ,NC  ,NA,300,NA,-157.061879210503,58.761387684241896
414,ADEC SDWIS active PWS source locations,AK2260032   ,TWIN HILLS WATER SYSTEM,34587,WL,Well,C   ,C   ,NA,87,NA,-160.28089114434297,59.07692016365459
415,ADEC SDWIS active PWS source locations,AK2241070   ,SUMMIT LAKE LODGE,34590,WL,Well,NC  ,NC  ,NA,707,NA,-149.499337653751,60.6409417395094
416,ADEC SDWIS active PWS source locations,AK2227204   ,UNIFIED ALASKAN UTILITIES MIDTOWN EST,34599,WL,Well,C   ,C   ,NA,495,NA,-149.21846232504498,61.6008467246393
417,ADEC SDWIS active PWS source locations,AK2216449   ,CAMPBELL CREEK CONG. JEHOVAH WITNESS,34606,WL,Well,NC  ,NC  ,NA,246,NA,-149.833393017302,61.1769116510379
418,ADEC SDWIS active PWS source locations,AK2271732   ,KSD ANIAK SECONDARY SCHOOL,34609,WL,Well,NTNC,Non-transient non-community,NA,80,NA,-159.551586804368,61.5795170452493
419,ADEC SDWIS active PWS source locations,AK2298103   ,VALDEZ WATER SYSTEM - MAIN,34611,WL,Well,C   ,C   ,NA,4500,NA,-146.38250397889303,61.1311672171581
420,ADEC SDWIS active PWS source locations,AK2224808   ,THREE BEARS STORE 47 - TRAPPER CREEK,34613,WL,Well,NC  ,NC  ,NA,61,NA,-150.23205084484897,62.31378451079499
421,ADEC SDWIS active PWS source locations,AK2223616   ,MSBSD BIG LAKE ELEM #2 NEW,34617,WL,Well,NTNC,Non-transient non-community,NA,365,NA,-149.82009327415795,61.538501629812295
422,ADEC SDWIS active PWS source locations,AK2242424   ,STERLING TESORO RESTAURANT,34618,WL,Well,NC  ,NC  ,NA,102,NA,-150.74480356658694,60.53593854533181
423,ADEC SDWIS active PWS source locations,AK2215558   ,TUDOR EAST APARTMENTS,34620,WL,Well,C   ,C   ,NA,78,NA,-149.766234021033,61.181122661721
424,ADEC SDWIS active PWS source locations,AK2226046   ,CATHOLIC CAMP & CONFERENCE MINISTRIES,34626,WL,Well,NC  ,NC  ,NA,56,NA,-149.271688346593,61.631104713971006
425,ADEC SDWIS active PWS source locations,AK2210485   ,SAND LAKE SERVICES,34627,WL,Well,C   ,C   ,NA,465,NA,-149.97453598597798,61.1345776307685
426,ADEC SDWIS active PWS source locations,AK2225082   ,WASILLA CHRISTIAN CHURCH,34630,WL,Well,NC  ,NC  ,NA,658,NA,-149.482743291455,61.557451683975295
427,ADEC SDWIS active PWS source locations,AK2210485   ,SAND LAKE SERVICES,34637,WL,Well,C   ,C   ,NA,465,NA,-149.98070398657302,61.1355466297005
428,ADEC SDWIS active PWS source locations,AK2227199   ,EQUESTRIAN ACRES,34641,WL,Well,C   ,C   ,NA,950,NA,-149.170342326214,61.60198873247781
429,ADEC SDWIS active PWS source locations,AK2291499   ,GLENNALLEN WATER WORKS,34643,WL,Well,C   ,C   ,NA,365,NA,-145.516708671435,62.106784306798495
430,ADEC SDWIS active PWS source locations,AK2249303   ,VOLCANO VIEW RV PARK,34646,WL,Well,NC  ,NC  ,NA,100,NA,-151.698340214827,60.027120427023
431,ADEC SDWIS active PWS source locations,AK2225241   ,"MUSEUM OF ALASKA, TRANSPORTATION & INDUS",34652,WL,Well,NC  ,NC  ,NA,29,NA,-149.545943305261,61.57741167231649
432,ADEC SDWIS active PWS source locations,AK2213768   ,PETERS CREEK MANOR APTS,34653,WL,Well,C   ,C   ,NA,48,NA,-149.438773188899,61.41397170034389
433,ADEC SDWIS active PWS source locations,AK2217908   ,ALPENGLOW SKI LODGE,34654,WL,Well,NC  ,NC  ,NA,354,NA,-149.53228306956697,61.24678169570309
434,ADEC SDWIS active PWS source locations,AK2215524   ,WALTER G PIPPEL SD,34655,WL,Well,C   ,C   ,NA,75,NA,-149.568493125398,61.326361684700395
435,ADEC SDWIS active PWS source locations,AK2225419   ,GROUSE RIDGE SHOOTING CLUB LLC,34665,WL,Well,NC  ,NC  ,NA,33,NA,-149.27698336691498,61.659111711323
436,ADEC SDWIS active PWS source locations,AK2225281   ,PT MACKENZIE CORRECTIONAL FARM,34690,WL,Well,C   ,C   ,NA,101,NA,-150.08146418469403,61.4184735947894
437,ADEC SDWIS active PWS source locations,AK2214112   ,TRINITY PRESBYTERIAN CHURCH,34693,WL,Well,NC  ,NC  ,NA,255,NA,-149.80765897026401,61.109051659610486
438,ADEC SDWIS active PWS source locations,AK2262725   ,KING SALMON LODGE,34695,WL,Well,NC  ,NC  ,NA,50,NA,-156.694421189487,58.683600747129304
439,ADEC SDWIS active PWS source locations,AK2224272   ,MSBSD TANAINA ELEMENTARY,34698,WL,Well,NTNC,Non-transient non-community,NA,439,NA,-149.454669328696,61.6085786853195
440,ADEC SDWIS active PWS source locations,AK2270613   ,LKSD TUNUNAK PAUL ALBERT HS,34700,WL,Well,C   ,C   ,NA,385,NA,-165.25422150869102,60.58613925152171
441,ADEC SDWIS active PWS source locations,AK2243828   ,ORCA TWIN THEATERS,34710,WL,Well,NC  ,NC  ,NA,250,NA,-151.158742530359,60.49387148151959
442,ADEC SDWIS active PWS source locations,AK2225279   ,SUNNY KNIK CHAPEL,34711,WL,Well,NC  ,NC  ,NA,125,NA,-149.73868421611297,61.4563286484816
443,ADEC SDWIS active PWS source locations,AK2242953   ,ROGUE WAVE PROCESSING,34724,WL,Well,NC  ,NC  ,NA,319,NA,-151.25424354312,60.51636546462619
444,ADEC SDWIS active PWS source locations,AK2247610   ,CAMP CREEKSIDE,34727,WL,Well,NC  ,NC  ,NA,46,NA,-149.38205035460803,60.1850567870046
445,ADEC SDWIS active PWS source locations,AK2223959   ,CAMP MARANATHA,34738,WL,Well,NC  ,NC  ,NA,144,NA,-149.95326329218696,61.56584160617491
446,ADEC SDWIS active PWS source locations,AK2271211   ,TUNTUTULIAK WASHETERIA AND WATERING PT,34746,WL,Well,C   ,C   ,NA,350,NA,-162.66839166591902,60.340029674361794
447,ADEC SDWIS active PWS source locations,AK2291279   ,TEZDLENDE ESTATES AND WATERING POINT,34747,WL,Well,C   ,C   ,NA,75,NA,-145.43427762737798,62.050905323465706
448,ADEC SDWIS active PWS source locations,AK2227750   ,GRANDVIEW RV PARK,34748,WL,Well,NC  ,NC  ,NA,27,NA,-147.609357470535,61.798068977704304
449,ADEC SDWIS active PWS source locations,AK2210906   ,MOA MUNICIPALITY OF ANCHORAGE,34751,WL,Well,C   ,C   ,NA,221351,NA,-149.719274017421,61.1752076697618
450,ADEC SDWIS active PWS source locations,AK2210906   ,MOA MUNICIPALITY OF ANCHORAGE,34755,WL,Well,C   ,C   ,NA,221351,NA,-149.88558502124897,61.183458642101606
451,ADEC SDWIS active PWS source locations,AK2247953   ,KACHEMAK SELO #3,34759,WL,Well,C   ,C   ,NA,150,NA,-151.06003208796702,59.802941543837996
452,ADEC SDWIS active PWS source locations,AK2248690   ,MINISTRY OF THE LIVING STONES,34762,WL,Well,NC  ,NC  ,NA,118,NA,-150.734340567257,60.536655546969605
453,ADEC SDWIS active PWS source locations,AK2261208   ,EKUK FISHERIES,34763,WL,Well,NC  ,NC  ,NA,150,NA,-158.56016113605298,58.81477045021179
454,ADEC SDWIS active PWS source locations,AK2213962   ,SUN VALLEY HEIGHTS SOUTH,34768,WL,Well,C   ,C   ,NA,34,NA,-149.76312496370596,61.0988856675199
455,ADEC SDWIS active PWS source locations,AK2225601   ,MT MCKINLEY PRINCESS LODGE,34772,WL,Well,NC  ,NC  ,NA,1156,NA,-150.225867032426,62.55561749568309
456,ADEC SDWIS active PWS source locations,AK2242521   ,KENAI PRINCESS LODGE,34776,WL,Well,NC  ,NC  ,NA,438,NA,-149.85417854822103,60.48796069196619
457,ADEC SDWIS active PWS source locations,AK2247767   ,JEHOVAHS WITNESS KINGDOM HALL,34784,WL,Well,NC  ,NC  ,NA,200,NA,-151.12077251729303,60.4728454890507
458,ADEC SDWIS active PWS source locations,AK2271033   ,ATMAUTLUAK WATER SYSTEM,34787,WL,Well,C   ,C   ,NA,311,NA,-162.27715204050298,60.85648968339668
459,ADEC SDWIS active PWS source locations,AK2220464   ,H & H LAKEVIEW LODGE,34793,WL,Well,NC  ,NC  ,NA,105,NA,-150.05786371576798,62.140891551171094
460,ADEC SDWIS active PWS source locations,AK2215922   ,GREEK ORTHODOX CHURCH,34794,WL,Well,NC  ,NC  ,NA,60,NA,-149.82929697874502,61.1216006552757
461,ADEC SDWIS active PWS source locations,AK2212851   ,BIRCHWOOD RECREATION AND SHOOTING PARK,34803,WL,Well,NC  ,NC  ,NA,54,NA,-149.50524319401697,61.4220016889412
462,ADEC SDWIS active PWS source locations,AK2360379   ,YUKON RIVER CAMP,34810,WL,Well,NC  ,NC  ,NA,59,NA,-149.72052205560001,65.88051135758097
463,ADEC SDWIS active PWS source locations,AK2262513   ,SILVER BAY SEAFOODS - WOOD RIVER,34828,WL,Well,NC  ,NC  ,NA,300,NA,-158.44133929035098,59.06821444595921
464,ADEC SDWIS active PWS source locations,AK2213954   ,ASD BEAR VALLEY ELEMENTARY,34841,WL,Well,NTNC,Non-transient non-community,NA,524,NA,-149.74707495379997,61.08436867106719
465,ADEC SDWIS active PWS source locations,AK2224256   ,SHORES OF ANCIENT TREE,34846,WL,Well,C   ,C   ,NA,170,NA,-149.35613332058304,61.596181702305906
466,ADEC SDWIS active PWS source locations,AK2225074   ,WASILLA BUMPUS SOFTBALL FIELDS,34855,WL,Well,NC  ,NC  ,NA,105,NA,-149.50018631675903,61.5926896788553
467,ADEC SDWIS active PWS source locations,AK2213491   ,DIV PARKS CHUGACH SP ERNC,34856,WL,Well,NC  ,NC  ,NA,30,NA,-149.27106306324896,61.234631739145996
468,ADEC SDWIS active PWS source locations,AK2222351   ,MILLERS MARKET,34859,WL,Well,NC  ,NC  ,NA,72,NA,-149.81107333954498,61.62878162543571
469,ADEC SDWIS active PWS source locations,AK2224109   ,WASILLA LACY LAINE SD,34860,WL,Well,C   ,C   ,NA,75,NA,-149.436906321885,61.59895468885391
470,ADEC SDWIS active PWS source locations,AK2248470   ,RUBYS CAFE,34863,WL,Well,NC  ,NC  ,NA,99,NA,-151.32047763870304,60.66216944400931
471,ADEC SDWIS active PWS source locations,AK2262254   ,ALASKA AIRLINES KING SALMON,34871,WL,Well,NC  ,NC  ,NA,160,NA,-156.667201190314,58.68211275142871
472,ADEC SDWIS active PWS source locations,AK2245082   ,STERLING BAPTIST CHURCH,34878,WL,Well,NC  ,NC  ,NA,135,NA,-150.79402756651697,60.537227537316184
473,ADEC SDWIS active PWS source locations,AK2241020   ,NIKISHKA BAY,34881,WL,Well,C   ,C   ,NA,470,NA,-151.30128268593404,60.73182144234619
474,ADEC SDWIS active PWS source locations,AK2270833   ,KSD GEORGE MORGAN HIGH SCHOOL,34891,WL,Well,NTNC,Non-transient non-community,NA,50,NA,-160.34677369696195,61.53221892260301
475,ADEC SDWIS active PWS source locations,AK2223438   ,KNIK BAR & LIQUOR,34893,WL,Well,NC  ,NC  ,NA,32,NA,-149.72495322000094,61.461541650395795
476,ADEC SDWIS active PWS source locations,AK2223179   ,SETTLERS BAY CONDOS,34895,WL,Well,C   ,C   ,NA,80,NA,-149.61363326544895,61.5231716646849
477,ADEC SDWIS active PWS source locations,AK2242953   ,ROGUE WAVE PROCESSING,34902,WL,Well,NC  ,NC  ,NA,319,NA,-151.25373354313598,60.516371464707895
478,ADEC SDWIS active PWS source locations,AK2225105   ,MAT SU COVENANT CHURCH,34906,WL,Well,NC  ,NC  ,NA,50,NA,-149.319612313022,61.58531870899841
479,ADEC SDWIS active PWS source locations,AK2215370   ,USFS WILLIWAW # 2 MIDDLE,34916,WL,Well,NC  ,NC  ,NA,40,NA,-148.87890675611303,60.78674883087081
480,ADEC SDWIS active PWS source locations,AK2210689   ,GLENCAREN COURT,34923,WL,Well,C   ,C   ,NA,828,NA,-149.728979036059,61.201975666457706
481,ADEC SDWIS active PWS source locations,AK2226517   ,ALPINE INN,34924,WL,Well,NC  ,NC  ,NA,55,NA,-148.896596406368,61.70990677075171
482,ADEC SDWIS active PWS source locations,AK2225308   ,HATCHER VIEW BUSINESS PARK,34927,WL,Well,NC  ,NC  ,NA,95,NA,-149.32626931257604,61.5847767079389
483,ADEC SDWIS active PWS source locations,AK2263025   ,RAPIDS CAMP LODGE,34929,WL,Well,NC  ,NC  ,NA,100,NA,-156.56994116968798,58.63512577023891
484,ADEC SDWIS active PWS source locations,AK2220634   ,MOUNTAIN VILLAGE PLAZA,34932,WL,Well,NC  ,NC  ,NA,100,NA,-149.38854330393505,61.57355169842091
485,ADEC SDWIS active PWS source locations,AK2263010   ,NINA NICHOLSON SUBDIVISION,34945,WL,Well,C   ,C   ,NA,31,NA,-158.536036263853,59.034771434384
486,ADEC SDWIS active PWS source locations,AK2210338   ,GREEN ACRES TC,34961,WL,Well,C   ,C   ,NA,96,NA,-149.80753300034598,61.1522116568488
487,ADEC SDWIS active PWS source locations,AK2213425   ,PORTAGE GLACIER LODGE,34966,WL,Well,NC  ,NC  ,NA,257,NA,-148.844122753628,60.78288483674859
488,ADEC SDWIS active PWS source locations,AK2262705   ,ALASKA GENERAL SEAFOODS NAKNEK-FREEZING,34968,WL,Well,NC  ,NC  ,NA,120,NA,-156.99347819812,58.731872697219195
489,ADEC SDWIS active PWS source locations,AK2221004   ,OUR LADY OF THE LK CATHOLIC CH,34971,WL,Well,NC  ,NC  ,NA,77,NA,-149.82500827122,61.5345056292649
490,ADEC SDWIS active PWS source locations,AK2242783   ,IMMANUEL BAPTIST CHURCH,34973,WL,Well,NC  ,NC  ,NA,147,NA,-151.235631542794,60.51523946769779
491,ADEC SDWIS active PWS source locations,AK2248080   ,TWIN RIVERS STORE,34976,WL,Well,NC  ,NC  ,NA,100,NA,-151.67802222316396,60.039401429414994
492,ADEC SDWIS active PWS source locations,AK2224670   ,LAKE LUCILLE LODGE BEST WESTRN,34977,WL,Well,NC  ,NC  ,NA,40,NA,-149.48474330521802,61.5765316824266
493,ADEC SDWIS active PWS source locations,AK2263039   ,SWRSD MANOKOTAK HEIGHTS SCHOOL,34982,WL,Well,NTNC,Non-transient non-community,NA,177,NA,-158.956001191833,58.9660803761786
494,ADEC SDWIS active PWS source locations,AK2249968   ,MAMAS CHIPPED CHINA  HIBERNATION STATION,34986,WL,Well,NC  ,NC  ,NA,43,NA,-150.81122256663303,60.53789553450171
495,ADEC SDWIS active PWS source locations,AK2222929   ,MARYS MCKINLEY VIEW,34988,WL,Well,NC  ,NC  ,NA,107,NA,-150.23661805686797,62.587014491789795
496,ADEC SDWIS active PWS source locations,AK2298103   ,VALDEZ WATER SYSTEM - MAIN,34991,WL,Well,C   ,C   ,NA,4500,NA,-146.36249098298507,61.137476220080806
497,ADEC SDWIS active PWS source locations,AK2272000   ,ALASKA AIRLINES BETHEL,34997,WL,Well,NC  ,NC  ,NA,457,NA,-161.83954503991697,60.78379075892931
498,ADEC SDWIS active PWS source locations,AK2215401   ,ALASKA ZOO,34999,WL,Well,NC  ,NC  ,NA,477,NA,-149.79260898053303,61.123550661128505
499,ADEC SDWIS active PWS source locations,AK2214544   ,AMAZING GRACE LUTHERAN CHURCH,35001,WL,Well,NTNC,Non-transient non-community,NA,354,NA,-149.80336697968102,61.1225066594427
500,ADEC SDWIS active PWS source locations,AK2245977   ,STERLING SENIOR CITIZEN CENTER,35003,WL,Well,NC  ,NC  ,NA,35,NA,-150.777892566434,60.536641539954495
501,ADEC SDWIS active PWS source locations,AK2223828   ,BOBS MINI MARKET,35006,WL,Well,NC  ,NC  ,NA,29,NA,-149.81867528294796,61.550672629255594
502,ADEC SDWIS active PWS source locations,AK2216512   ,BIRCH AND ALDER LLC,35009,WL,Well,NC  ,NC  ,NA,51,NA,-149.51655288936595,60.98782171475089
503,ADEC SDWIS active PWS source locations,AK2244256   ,CROOKED CREEK RV PARK,35010,WL,Well,NC  ,NC  ,NA,136,NA,-151.285667413953,60.32084047288009
504,ADEC SDWIS active PWS source locations,AK2262474   ,LFS NAKNEK MARINE CENTER,35017,WL,Well,NC  ,NC  ,NA,156,NA,-156.95005420774598,58.7439657028665
505,ADEC SDWIS active PWS source locations,AK2280074   ,HOLY CROSS WATER SYSTEM,35022,WL,Well,C   ,C   ,NA,182,NA,-159.77071423148897,62.198556952959315
506,ADEC SDWIS active PWS source locations,AK2270273   ,MARSHALL WATER SYSTEM,35028,WL,Well,C   ,C   ,NA,308,NA,-162.07979275964695,61.875459613518494
507,ADEC SDWIS active PWS source locations,AK2214730   ,POTTER CREEK WATER COMPANY,35033,WL,Well,C   ,C   ,NA,375,NA,-149.78310493088097,61.051907667287985
508,ADEC SDWIS active PWS source locations,AK2214968   ,GIRDWOOD STATION MALL - TESORO #30054,35035,WL,Well,NC  ,NC  ,NA,400,NA,-149.172293859706,60.94076677368829
509,ADEC SDWIS active PWS source locations,AK2244858   ,NORTH STAR U. METHODIST CHURCH,35036,WL,Well,NC  ,NC  ,NA,65,NA,-151.33271267778903,60.720811438023304
510,ADEC SDWIS active PWS source locations,AK2225253   ,CHRIST FIRST UNITED METHODIST CHURCH,35042,WL,Well,NC  ,NC  ,NA,71,NA,-149.53238328617198,61.55079167624999
511,ADEC SDWIS active PWS source locations,AK2217576   ,QUIET VIEW APTS,35049,WL,Well,C   ,C   ,NA,96,NA,-149.86997599876997,61.151023646745294
512,ADEC SDWIS active PWS source locations,AK2224117   ,WELLINGFIELD WEST DIV I II,35053,WL,Well,C   ,C   ,NA,168,NA,-149.31215329387396,61.558741711911296
513,ADEC SDWIS active PWS source locations,AK2245024   ,ABUNDANT LIFE ASSEMBLY OF GOD,35066,WL,Well,NC  ,NC  ,NA,154,NA,-150.73326256385192,60.53149454748689
514,ADEC SDWIS active PWS source locations,AK2298200   ,VALDEZ GLACIER CAMPGROUND,35070,WL,Well,NC  ,NC  ,NA,200,NA,-146.20516298087196,61.13815224574111
515,ADEC SDWIS active PWS source locations,AK2213603   ,LAKE O THE HILLS EAST,35071,WL,Well,C   ,C   ,NA,56,NA,-149.75106297696797,61.1177516682719
516,ADEC SDWIS active PWS source locations,AK2215362   ,USFS WILLIWAW #1 EAST,35074,WL,Well,NC  ,NC  ,NA,40,NA,-148.876445755172,60.785347831356
517,ADEC SDWIS active PWS source locations,AK2243488   ,TRAIL LAKE LODGE MOTEL,35075,WL,Well,NC  ,NC  ,NA,41,NA,-149.36914255257602,60.487457770179496
518,ADEC SDWIS active PWS source locations,AK2210346   ,GREENBROOK S/D,35076,WL,Well,C   ,C   ,NA,123,NA,-149.75795297016697,61.108091667770395
519,ADEC SDWIS active PWS source locations,AK2271017   ,LKSD TUNTUTULIAK ANGAPAK SC,35078,WL,Well,NTNC,Non-transient non-community,NA,101,NA,-162.67663866695096,60.34312467277719
520,ADEC SDWIS active PWS source locations,AK2271928   ,YKHC ANIAK SUBREGIONAL CLINIC,35080,WL,Well,NC  ,NC  ,NA,40,NA,-159.537801800392,61.572108048136506
521,ADEC SDWIS active PWS source locations,AK2225458   ,TOWNSITE FOODMART,35083,WL,Well,NC  ,NC  ,NA,406,NA,-150.04214141652702,61.7385475802596
522,ADEC SDWIS active PWS source locations,AK2224646   ,WASILLA WATER SYSTEM,35087,WL,Well,C   ,C   ,NA,18492,NA,-149.44779032155398,61.5986336870856
523,ADEC SDWIS active PWS source locations,AK2210689   ,GLENCAREN COURT,35088,WL,Well,C   ,C   ,NA,828,NA,-149.72947203604298,61.201961666378196
524,ADEC SDWIS active PWS source locations,AK2224646   ,WASILLA WATER SYSTEM,35089,WL,Well,C   ,C   ,NA,18492,NA,-149.45306331097902,61.584089687148285
525,ADEC SDWIS active PWS source locations,AK2218108   ,RABBIT CREEK COMMUNITY CHURCH,35096,WL,Well,NC  ,NC  ,NA,205,NA,-149.81800295240603,61.0835316595703
526,ADEC SDWIS active PWS source locations,AK2260286   ,SAINT PAUL WATER SYSTEM,35106,WL,Well,C   ,C   ,NA,380,NA,-170.262548922832,57.147584922592195
527,ADEC SDWIS active PWS source locations,AK2260286   ,SAINT PAUL WATER SYSTEM,35107,WL,Well,C   ,C   ,NA,380,NA,-170.26288392286898,57.14777592252231
528,ADEC SDWIS active PWS source locations,AK2262301   ,NAPAKIAK WASHETERIA,35108,WL,Well,C   ,C   ,NA,336,NA,-161.97282696775102,60.6946637469046
529,ADEC SDWIS active PWS source locations,AK2211114   ,ROMIG PARK S/D,35109,WL,Well,C   ,C   ,NA,493,NA,-149.90929703308302,61.20077663711171
530,ADEC SDWIS active PWS source locations,AK2212267   ,GLACIER VALLEY WATER COMPANY,35129,WL,Well,C   ,C   ,NA,120,NA,-149.13390087631797,60.96457477844359
531,ADEC SDWIS active PWS source locations,AK2240448   ,KENAI WATER SYSTEM,35136,WL,Well,C   ,C   ,NA,5700,NA,-151.12174957818402,60.5648024826697
532,ADEC SDWIS active PWS source locations,AK2221012   ,MSBSD SUSITNA VALLEY HIGH,35137,WL,Well,NTNC,Non-transient non-community,NA,250,NA,-150.04333370903498,62.131711554185
533,ADEC SDWIS active PWS source locations,AK2261460   ,SALMON ROE,35140,WL,Well,C   ,C   ,NA,31,NA,-158.49520127134696,59.04239043997511
534,ADEC SDWIS active PWS source locations,AK2241020   ,NIKISHKA BAY,35141,WL,Well,C   ,C   ,NA,470,NA,-151.30160268592002,60.7318114422952
535,ADEC SDWIS active PWS source locations,AK2243137   ,BEACHSIDE ESTATES,35148,WL,Well,C   ,C   ,NA,60,NA,-151.247882543632,60.51692146561198
536,ADEC SDWIS active PWS source locations,AK2243137   ,BEACHSIDE ESTATES,35149,WL,Well,C   ,C   ,NA,60,NA,-151.247721543638,60.516924465637686
537,ADEC SDWIS active PWS source locations,AK2250582   ,JAVA FLATS/RUSSIAN RIVER ROADHOUSE,35152,WL,Well,NC  ,NC  ,NA,39,NA,-152.57855083785196,57.70143145136819
538,ADEC SDWIS active PWS source locations,AK2241054   ,SOLDOTNA,35160,WL,Well,C   ,C   ,NA,4807,NA,-151.095937530151,60.49150849178359
539,ADEC SDWIS active PWS source locations,AK2260090   ,MANOKOTAK WATER SYSTEM,35161,WL,Well,C   ,C   ,NA,293,NA,-159.05555419179194,58.97975735971799
540,ADEC SDWIS active PWS source locations,AK2261630   ,BRISTOL BAY LODGE,35162,WL,Well,NC  ,NC  ,NA,46,NA,-158.94297346624597,59.43410633607271
541,ADEC SDWIS active PWS source locations,AK2210697   ,OASIS WATER - MCKINLEY VIEW DIV,35164,WL,Well,C   ,C   ,NA,130,NA,-149.45867318923302,61.41469169703769
542,ADEC SDWIS active PWS source locations,AK2211677   ,SOUTHWOOD MANOR TC,35170,WL,Well,C   ,C   ,NA,1005,NA,-149.85262098823605,61.1356216505696
543,ADEC SDWIS active PWS source locations,AK2227173   ,MEADOW VALLEY SD ADD #1,35171,WL,Well,NC  ,NC  ,NA,35,NA,-149.27145729650096,61.5619367183937
544,ADEC SDWIS active PWS source locations,AK2249337   ,TOWN OF THE LIVING TREES,35173,WL,Well,NC  ,NC  ,NA,25,NA,-150.989430539068,60.50162650823959
545,ADEC SDWIS active PWS source locations,AK2224329   ,CRIMSON VIEW S/D WATER ASSN.,35179,WL,Well,C   ,C   ,NA,118,NA,-149.15649030122503,61.56732273694121
546,ADEC SDWIS active PWS source locations,AK2260090   ,MANOKOTAK WATER SYSTEM,35181,WL,Well,C   ,C   ,NA,293,NA,-159.05528819186898,58.97985435974989
547,ADEC SDWIS active PWS source locations,AK2226258   ,SUTTON HILLTOP TESORO,35185,WL,Well,NC  ,NC  ,NA,79,NA,-148.93472740504302,61.7083517645675
548,ADEC SDWIS active PWS source locations,AK2210346   ,GREENBROOK S/D,35186,WL,Well,C   ,C   ,NA,123,NA,-149.758222970157,61.10808166772709
549,ADEC SDWIS active PWS source locations,AK2217267   ,EKLUTNA HEALTH CLINIC & OFFICE BUILDING,35187,WL,Well,NC  ,NC  ,NA,28,NA,-149.36134322111099,61.4581017102283
550,ADEC SDWIS active PWS source locations,AK2242987   ,ECHO LAKE SUPERIOR MEATS,35189,WL,Well,NC  ,NC  ,NA,100,NA,-151.16969253943196,60.50795147880329
551,ADEC SDWIS active PWS source locations,AK2221834   ,UNIFIED ALASKAN UTILITIES SETTLERS BAY,35210,WL,Well,C   ,C   ,NA,2733,NA,-149.62158726095197,61.51703666377399
552,ADEC SDWIS active PWS source locations,AK2221834   ,UNIFIED ALASKAN UTILITIES SETTLERS BAY,35211,WL,Well,C   ,C   ,NA,2733,NA,-149.61503325275598,61.5055416655882
553,ADEC SDWIS active PWS source locations,AK2260676   ,L&PSD PORT HEIDEN SCHOOL,35227,WL,Well,NTNC,Non-transient non-community,NA,30,NA,-158.66050012968597,56.92393260295861
554,ADEC SDWIS active PWS source locations,AK2225626   ,TALKEETNA RV LLC,35229,WL,Well,NC  ,NC  ,NA,25,NA,-150.10611085603801,62.32579053092671
555,ADEC SDWIS active PWS source locations,AK2241745   ,KENAI REFINERY,35231,WL,Well,NTNC,Non-transient non-community,NA,150,NA,-151.370797653882,60.6865714342202
556,ADEC SDWIS active PWS source locations,AK2249002   ,KENAI PENINSULA FOOD BANK,35240,WL,Well,NC  ,NC  ,NA,206,NA,-151.13461251701,60.47286948682329
557,ADEC SDWIS active PWS source locations,AK2212152   ,BIRCHWOOD CAMP,35245,WL,Well,NC  ,NC  ,NA,49,NA,-149.56308316654994,61.38425168188149
558,ADEC SDWIS active PWS source locations,AK2212267   ,GLACIER VALLEY WATER COMPANY,35246,WL,Well,C   ,C   ,NA,120,NA,-149.133988876287,60.964529778432095
559,ADEC SDWIS active PWS source locations,AK2216407   ,PORTAGE GLACIER CRUISES,35247,WL,Well,NC  ,NC  ,NA,400,NA,-148.829707745652,60.771041839812696
560,ADEC SDWIS active PWS source locations,AK2262513   ,SILVER BAY SEAFOODS - WOOD RIVER,35251,WL,Well,NC  ,NC  ,NA,300,NA,-158.441029290324,59.0681264460146
561,ADEC SDWIS active PWS source locations,AK2211376   ,SUNSET HILL BAPTIST CHURCH,35254,WL,Well,NC  ,NC  ,NA,127,NA,-149.86494997075303,61.1107346501683
562,ADEC SDWIS active PWS source locations,AK2240901   ,PACIFIC STAR SEAFOODS K2,35256,WL,Well,NC  ,NC  ,NA,64,NA,-151.22789656604598,60.5500474665757
563,ADEC SDWIS active PWS source locations,AK2225773   ,NORTH FORK PROFESSIONAL BLDGS,35258,WL,Well,NTNC,Non-transient non-community,NA,200,NA,-149.406473314749,61.5887216945081
564,ADEC SDWIS active PWS source locations,AK2248836   ,SUNRISE INN,35259,WL,Well,NC  ,NC  ,NA,54,NA,-149.730232548007,60.48556171209349
565,ADEC SDWIS active PWS source locations,AK2291499   ,GLENNALLEN WATER WORKS,35262,WL,Well,C   ,C   ,NA,365,NA,-145.51665467134492,62.1066663068138
566,ADEC SDWIS active PWS source locations,AK2212005   ,SUN VALLEY HEIGHTS NORTH,35263,WL,Well,C   ,C   ,NA,51,NA,-149.76274296485497,61.1005316674762
567,ADEC SDWIS active PWS source locations,AK2261478   ,RED SALMON CANNERY,35272,WL,Well,NC  ,NC  ,NA,450,NA,-156.97953320334594,58.7395156987166
568,ADEC SDWIS active PWS source locations,AK2249874   ,FRONTIER COMMUNITY SERVICES,35273,WL,Well,NC  ,NC  ,NA,70,NA,-151.157762529435,60.49244148177419
569,ADEC SDWIS active PWS source locations,AK2218551   ,USFS WILLIWAW #4,35279,WL,Well,NC  ,NC  ,NA,25,NA,-148.87196375404497,60.7836598321866
570,ADEC SDWIS active PWS source locations,AK2221800   ,SUSITNA BAR & GRILL,35280,WL,Well,NC  ,NC  ,NA,29,NA,-149.87812035196404,61.647026613227794
571,ADEC SDWIS active PWS source locations,AK2226509   ,MOUNTAIN VIEW ESTATES,35285,WL,Well,C   ,C   ,NA,150,NA,-149.12608729606197,61.559894742404296
572,ADEC SDWIS active PWS source locations,AK2240503   ,HIGHLAND PRIDE MOBILE HOME PARK,35287,WL,Well,C   ,C   ,NA,100,NA,-151.084422563706,60.54180149023779
573,ADEC SDWIS active PWS source locations,AK2227563   ,PALMER CHRISTIAN CHURCH,35300,WL,Well,NC  ,NC  ,NA,75,NA,-149.126883332127,61.6097417391341
574,ADEC SDWIS active PWS source locations,AK2241313   ,FOUR ROYLE PARKERS BAR & REST.,35301,WL,Well,NC  ,NC  ,NA,31,NA,-151.08260453896,60.504399493057896
575,ADEC SDWIS active PWS source locations,AK2227582   ,PALMER ELKS LODGE #1842 INC,35302,WL,Well,NC  ,NC  ,NA,38,NA,-149.29015333010997,61.608587712363196
576,ADEC SDWIS active PWS source locations,AK2213792   ,EAGLECREST CONDOS ASSN.,35314,WL,Well,C   ,C   ,NA,120,NA,-149.853101976176,61.11832065160859
577,ADEC SDWIS active PWS source locations,AK2260375   ,SOCKEYE SALOON,35318,WL,Well,NC  ,NC  ,NA,150,NA,-156.67081119091796,58.6835707507539
578,ADEC SDWIS active PWS source locations,AK2244222   ,RAZDOLNA ELEMENTARY SCHOOL,35325,WL,Well,NTNC,Non-transient non-community,NA,50,NA,-151.08338209338197,59.81235153949729
579,ADEC SDWIS active PWS source locations,AK2249882   ,DIV PARKS SLIDEHOLE,35331,WL,Well,NC  ,NC  ,NA,25,NA,-151.85011204780102,59.76821142078371
580,ADEC SDWIS active PWS source locations,AK2261224   ,KULIK LODGE KATMAILAND,35332,WL,Well,NC  ,NC  ,NA,53,NA,-155.12008344773102,58.98051696597571
581,ADEC SDWIS active PWS source locations,AK2225261   ,HILLTOP ASSEMBLY OF GOD,35335,WL,Well,NC  ,NC  ,NA,44,NA,-149.86614635046206,61.64475161534449
582,ADEC SDWIS active PWS source locations,AK2211075   ,OW DIMOND ESTATES TRAILER COURT,35336,WL,Well,C   ,C   ,NA,1395,NA,-149.90562699105197,61.140592641608805
583,ADEC SDWIS active PWS source locations,AK2211708   ,BOREALIS ALPHA WATER SYSTEM,35338,WL,Well,C   ,C   ,NA,30,NA,-149.79238197359302,61.113580661807696
584,ADEC SDWIS active PWS source locations,AK2226779   ,HATCHER PASS LODGE,35339,WL,Well,NC  ,NC  ,NA,32,NA,-149.27747545374498,61.77782170370139
585,ADEC SDWIS active PWS source locations,AK2248878   ,KPB MAINTENANCE SHOP,35346,WL,Well,NTNC,Non-transient non-community,NA,50,NA,-151.15067252689298,60.48836148319119
586,ADEC SDWIS active PWS source locations,AK2227633   ,BIG LAKE SUPER STORE,35348,WL,Well,NC  ,NC  ,NA,67,NA,-149.81853128509502,61.553647629086186
587,ADEC SDWIS active PWS source locations,AK2227643   ,HEMMER BUILDING,35349,WL,Well,NC  ,NC  ,NA,44,NA,-149.147841325327,61.6005517362676
588,ADEC SDWIS active PWS source locations,AK2214340   ,SEVEN GLACIERS RESTAURANT,35362,WL,Well,NC  ,NC  ,NA,572,NA,-149.07439587385596,60.9604797883756
589,ADEC SDWIS active PWS source locations,AK2226533   ,FARM LOOP CHRISTIAN CENTER,35364,WL,Well,NC  ,NC  ,NA,87,NA,-149.14338535894498,61.646821734082195
590,ADEC SDWIS active PWS source locations,AK2212518   ,AK BRIDGE OF HOPE,35367,WL,Well,NC  ,NC  ,NA,77,NA,-149.45098318366902,61.406791698801
591,ADEC SDWIS active PWS source locations,AK2225601   ,MT MCKINLEY PRINCESS LODGE,35368,WL,Well,NC  ,NC  ,NA,1156,NA,-150.23115203332597,62.556877494717185
592,ADEC SDWIS active PWS source locations,AK2225601   ,MT MCKINLEY PRINCESS LODGE,35369,WL,Well,NC  ,NC  ,NA,1156,NA,-150.22957903404895,62.55776749492009
593,ADEC SDWIS active PWS source locations,AK2227458   ,MSB SUTTON LIBRARY,35370,WL,Well,NC  ,NC  ,NA,34,NA,-148.87682340707903,61.7107517739563
594,ADEC SDWIS active PWS source locations,AK2213140   ,CREEKWOOD INN AND RV PARK,35371,WL,Well,NC  ,NC  ,NA,107,NA,-149.86890403365402,61.2008776436957
595,ADEC SDWIS active PWS source locations,AK2227301   ,RAYS CHILD CARE LEARNING,35373,WL,Well,NTNC,Non-transient non-community,NA,80,NA,-149.225453323773,61.599161723596595
596,ADEC SDWIS active PWS source locations,AK2211473   ,PETERS CREEK TERRACE,35375,WL,Well,C   ,C   ,NA,70,NA,-149.433623188475,61.4133117012297
597,ADEC SDWIS active PWS source locations,AK2270401   ,BETHEL LONGHOUSE HOTEL,35379,WL,Well,NC  ,NC  ,NA,90,NA,-161.758542055562,60.7946597705224
598,ADEC SDWIS active PWS source locations,AK2261208   ,EKUK FISHERIES,35381,WL,Well,NC  ,NC  ,NA,150,NA,-158.56262113534999,58.81386044991679
599,ADEC SDWIS active PWS source locations,AK2240846   ,GWIN'S LODGE & BAR,35386,WL,Well,NC  ,NC  ,NA,170,NA,-149.921083543265,60.48166668158939
600,ADEC SDWIS active PWS source locations,AK2261208   ,EKUK FISHERIES,35393,WL,Well,NC  ,NC  ,NA,150,NA,-158.561401136385,58.815520449955805
601,ADEC SDWIS active PWS source locations,AK2250396   ,RENDEZVOUS,35397,WL,Well,NC  ,NC  ,NA,56,NA,-152.58147083504903,57.69631145128209
602,ADEC SDWIS active PWS source locations,AK2262282   ,COPPER RIVER SEAFOODS NAKNEK,35407,WL,Well,NC  ,NC  ,NA,120,NA,-157.02590519198398,58.7247036928482
603,ADEC SDWIS active PWS source locations,AK2211677   ,SOUTHWOOD MANOR TC,35418,WL,Well,C   ,C   ,NA,1005,NA,-149.85319698450303,61.130276650821
604,ADEC SDWIS active PWS source locations,AK2225601   ,MT MCKINLEY PRINCESS LODGE,35421,WL,Well,NC  ,NC  ,NA,1156,NA,-150.225247031756,62.55474949584448
605,ADEC SDWIS active PWS source locations,AK2249701   ,DIAMOND M RANCH RESORT,35429,WL,Well,NC  ,NC  ,NA,38,NA,-151.191024545237,60.517429474727486
606,ADEC SDWIS active PWS source locations,AK2215388   ,USFS WILLIWAW # 3 WEST,35431,WL,Well,NC  ,NC  ,NA,40,NA,-148.88586075595,60.786551829755304
607,ADEC SDWIS active PWS source locations,AK2225488   ,UPPER SUSITNA SENIORS CENTER,35432,WL,Well,NC  ,NC  ,NA,25,NA,-150.035393708189,62.13044155558439
608,ADEC SDWIS active PWS source locations,AK2225753   ,SLAVIC EVANGELICAL CHURCH,35438,WL,Well,NC  ,NC  ,NA,298,NA,-149.48479831842005,61.59478168124999
609,ADEC SDWIS active PWS source locations,AK2220163   ,WASILLA LAKE CHURCH OF THE NAZARENE,35445,WL,Well,NTNC,Non-transient non-community,NA,188,NA,-149.39990530955598,61.581463696049994
610,ADEC SDWIS active PWS source locations,AK2240901   ,PACIFIC STAR SEAFOODS K2,35451,WL,Well,NC  ,NC  ,NA,64,NA,-151.227727566065,60.55007146660119
611,ADEC SDWIS active PWS source locations,AK2227199   ,EQUESTRIAN ACRES,35454,WL,Well,C   ,C   ,NA,950,NA,-149.170441326164,61.60192073246581
612,ADEC SDWIS active PWS source locations,AK2227734   ,PIONEER MEADOWS SUBDIVISION,35455,WL,Well,C   ,C   ,NA,435,NA,-149.162613304637,61.5721017356338
613,ADEC SDWIS active PWS source locations,AK2227749   ,FOX RUN CAMPGROUND,35456,WL,Well,NC  ,NC  ,NA,27,NA,-149.22949628943402,61.5517087259337
614,ADEC SDWIS active PWS source locations,AK2210906   ,MOA MUNICIPALITY OF ANCHORAGE,35472,WL,Well,C   ,C   ,NA,221351,NA,-149.783122992011,61.13986166162409
615,ADEC SDWIS active PWS source locations,AK2260278   ,NIKOLSKI VILLAGE,35474,WL,Well,C   ,C   ,NA,34,NA,-168.871357428188,52.93465962799829
616,ADEC SDWIS active PWS source locations,AK2213946   ,INDIAN VALLEY MEATS,35475,WL,Well,NC  ,NC  ,NA,29,NA,-149.52179289248102,60.9924117136071
617,ADEC SDWIS active PWS source locations,AK2227204   ,UNIFIED ALASKAN UTILITIES MIDTOWN EST,35480,WL,Well,C   ,C   ,NA,495,NA,-149.21737332572098,61.60176872476
618,ADEC SDWIS active PWS source locations,AK2227424   ,PALMER CHURCH OF GOD INC,35483,WL,Well,NC  ,NC  ,NA,103,NA,-149.14505330853697,61.577331738189606
619,ADEC SDWIS active PWS source locations,AK2243632   ,TESORO #30201 - NORTHSTORE,35486,WL,Well,NC  ,NC  ,NA,100,NA,-151.368973639235,60.66466143601559
620,ADEC SDWIS active PWS source locations,AK2218538   ,GRACE BRETHREN CHURCH E/R,35488,WL,Well,NC  ,NC  ,NA,300,NA,-149.53365316490294,61.3815316868741
621,ADEC SDWIS active PWS source locations,AK2210906   ,MOA MUNICIPALITY OF ANCHORAGE,35497,WL,Well,C   ,C   ,NA,221351,NA,-149.72449801573603,61.172881669059194
622,ADEC SDWIS active PWS source locations,AK2240901   ,PACIFIC STAR SEAFOODS K2,35501,WL,Well,NC  ,NC  ,NA,64,NA,-151.228309566174,60.550255466494995
623,ADEC SDWIS active PWS source locations,AK2244442   ,KENAI RIVERSIDE LODGE,35502,WL,Well,NC  ,NC  ,NA,52,NA,-149.87442254748305,60.487201688752585
624,ADEC SDWIS active PWS source locations,AK2244612   ,NORTH KENAI CHAPEL,35503,WL,Well,NC  ,NC  ,NA,80,NA,-151.24152269052595,60.73660145167309
625,ADEC SDWIS active PWS source locations,AK2247741   ,KENAI RIVERBEND RESORT,35509,WL,Well,NC  ,NC  ,NA,240,NA,-151.10496954470898,60.5138054888228
626,ADEC SDWIS active PWS source locations,AK2262282   ,COPPER RIVER SEAFOODS NAKNEK,35516,WL,Well,NC  ,NC  ,NA,120,NA,-157.024839192207,58.72497769298871
627,ADEC SDWIS active PWS source locations,AK2226240   ,PALMER CORRECTIONAL CENTER,35518,WL,Well,C   ,C   ,NA,90,NA,-149.00747839232903,61.69148275364248
628,ADEC SDWIS active PWS source locations,AK2220139   ,WILDERNESS ESTATES,35528,WL,Well,C   ,C   ,NA,110,NA,-149.58151131122403,61.58615366591219
629,ADEC SDWIS active PWS source locations,AK2220286   ,ALCANTRA NATIONAL GUARD CAMP,35530,WL,Well,NC  ,NC  ,NA,207,NA,-149.361693324591,61.6017797010358
630,ADEC SDWIS active PWS source locations,AK2211122   ,SWISS AIRE S/D,35539,WL,Well,C   ,C   ,NA,48,NA,-149.82763899330502,61.1424616541999
631,ADEC SDWIS active PWS source locations,AK2224159   ,ALEUTIAN ESTATES #1,35541,WL,Well,C   ,C   ,NA,63,NA,-149.297803374463,61.6697017072246
632,ADEC SDWIS active PWS source locations,AK2224345   ,TRINITY LUTHERAN CHURCH,35542,WL,Well,NTNC,Non-transient non-community,NA,269,NA,-149.19026132504197,61.60056372929309
633,ADEC SDWIS active PWS source locations,AK2217259   ,CHAPEL OF THE CROSS,35544,WL,Well,NC  ,NC  ,NA,120,NA,-149.74764497151898,61.10986866933559
634,ADEC SDWIS active PWS source locations,AK2261486   ,EDDIES FIREPLACE INN,35555,WL,Well,NC  ,NC  ,NA,64,NA,-156.67267119092298,58.6837807504511
635,ADEC SDWIS active PWS source locations,AK2320036   ,ALYESKA PS 4 PERM,35557,WL,Well,NTNC,Non-transient non-community,NA,60,NA,-149.376114069793,68.421812243893
636,ADEC SDWIS active PWS source locations,AK2210906   ,MOA MUNICIPALITY OF ANCHORAGE,35570,WL,Well,C   ,C   ,NA,221351,NA,-149.717033022493,61.18242166966379
637,ADEC SDWIS active PWS source locations,AK2212039   ,DOYON UTILITIES JBER - RICHARDSON,35575,WL,Well,C   ,C   ,NA,20284,NA,-149.728493063804,61.24148166399589
638,ADEC SDWIS active PWS source locations,AK2249345   ,THE BUZZ CAFE,35578,WL,Well,NC  ,NC  ,NA,25,NA,-151.67098922794196,60.046618430038905
639,ADEC SDWIS active PWS source locations,AK2213297   ,BIRCHWOOD MHP,35580,WL,Well,C   ,C   ,NA,120,NA,-149.46967317926297,61.40084969611829
640,ADEC SDWIS active PWS source locations,AK2217576   ,QUIET VIEW APTS,35581,WL,Well,C   ,C   ,NA,96,NA,-149.870314998761,61.15101664669049
641,ADEC SDWIS active PWS source locations,AK2212021   ,GIRDWOOD WATER SYSTEM,35587,WL,Well,C   ,C   ,NA,2625,NA,-149.10730788384402,60.975270782101504
642,ADEC SDWIS active PWS source locations,AK2226834   ,MAJESTIC VALLEY LODGE,35590,WL,Well,NC  ,NC  ,NA,32,NA,-147.45592848511802,61.819138001803495
643,ADEC SDWIS active PWS source locations,AK2271790   ,UNITED PENTECOSTAL CHURCH,35596,WL,Well,NC  ,NC  ,NA,121,NA,-161.77150305431195,60.79483276847921
644,ADEC SDWIS active PWS source locations,AK2211562   ,COLONIAL PARK S/D,35599,WL,Well,C   ,C   ,NA,63,NA,-149.516323115113,61.311115694207
645,ADEC SDWIS active PWS source locations,AK2272004   ,KOTLIK WATER SYSTEM,35656,IN,Intake,C   ,C   ,NA,617,NA,-163.554723448226,63.033679261087094
646,ADEC SDWIS active PWS source locations,AK2271041   ,QUINHAGAK WATER SYSTEM,35773,IN,Intake,C   ,C   ,NA,724,NA,-161.901151389656,59.7577348504094
647,ADEC SDWIS active PWS source locations,AK2270728   ,LKSD KIPNUK HS,35800,IN,Intake,NTNC,Non-transient non-community,NA,262,NA,-164.033409257896,59.932424507110994
648,ADEC SDWIS active PWS source locations,AK2270176   ,ST. MARYS WATER SYSTEM,35821,IN,Intake,C   ,C   ,NA,548,NA,-163.19716875434096,62.048812418651806
649,ADEC SDWIS active PWS source locations,AK2260804   ,NELSON LAGOON WATER SYSTEM,35864,IN,Intake,C   ,C   ,NA,60,NA,-161.459872444213,55.95034528929429
650,ADEC SDWIS active PWS source locations,AK2333241   ,CONOCOPHILLIPS KUPARUK IND. CENTER,35876,IN,Intake,NTNC,Non-transient non-community,NA,80,NA,-149.59887190273602,70.3416700677806
651,ADEC SDWIS active PWS source locations,AK2293205   ,CORDOVA CITY WATER,35996,IN,Intake,C   ,C   ,NA,2700,NA,-145.71845056099997,60.5362353569122
652,ADEC SDWIS active PWS source locations,AK2210906   ,MOA MUNICIPALITY OF ANCHORAGE,36067,IN,Intake,C   ,C   ,NA,221351,NA,-149.63630305209801,61.2234116802095
